,state_code,city_code,city_name,lat,long,capital
0,52,5200050,Abadia de Goiás,-16.7573,-49.4412,False
1,31,3100104,Abadia dos Dourados,-18.4831,-47.3916,False
2,52,5200100,Abadiânia,-16.197,-48.7057,False
3,31,3100203,Abaeté,-19.1551,-45.4444,False
4,15,1500107,Abaetetuba,-1.72183,-48.8788,False
5,23,2300101,Abaiara,-7.34588,-39.0416,False
6,29,2900108,Abaíra,-13.2488,-41.6619,False
7,29,2900207,Abaré,-8.72073,-39.1162,False
8,41,4100103,Abatiá,-23.3049,-50.3133,False
9,42,4200051,Abdon Batista,-27.6126,-51.0233,False
10,15,1500131,Abel Figueiredo,-4.95333,-48.3933,False
11,42,4200101,Abelardo Luz,-26.5716,-52.3229,False
12,31,3100302,Abre Campo,-20.2996,-42.4743,False
13,26,2600054,Abreu e Lima,-7.90072,-34.8984,False
14,17,1700251,Abreulândia,-9.62101,-49.1518,False
15,31,3100401,Acaiaca,-20.359,-43.1439,False
16,21,2100055,Açailândia,-4.94714,-47.5004,False
17,29,2900306,Acajutiba,-11.6575,-38.0197,False
18,15,1500206,Acará,-1.95383,-48.1985,False
19,23,2300150,Acarape,-4.22083,-38.7055,False
20,23,2300200,Acaraú,-2.88769,-40.1183,False
21,24,2400109,Acari,-6.4282,-36.6347,False
22,22,2200053,Acauã,-8.21954,-41.0831,False
23,43,4300034,Aceguá,-31.8665,-54.1615,False
24,23,2300309,Acopiara,-6.08911,-39.448,False
25,51,5100102,Acorizal,-15.194,-56.3632,False
26,12,1200013,Acrelândia,-9.82581,-66.8972,False
27,52,5200134,Acreúna,-17.396,-50.3749,False
28,24,2400208,Açu,-5.58362,-36.914,False
29,31,3100500,Açucena,-19.0671,-42.5419,False
30,35,3500105,Adamantina,-21.682,-51.0737,False
31,52,5200159,Adelândia,-16.4127,-50.1657,False
32,35,3500204,Adolfo,-21.2325,-49.6451,False
33,41,4100202,Adrianópolis,-24.6606,-48.9922,False
34,29,2900355,Adustina,-10.5437,-38.1113,False
35,26,2600104,Afogados da Ingazeira,-7.743119999999999,-37.631,False
36,24,2400307,Afonso Bezerra,-5.492290000000001,-36.5075,False
37,32,3200102,Afonso Cláudio,-20.0778,-41.1261,False
38,21,2100105,Afonso Cunha,-4.13631,-43.3275,False
39,26,2600203,Afrânio,-8.51136,-41.0095,False
40,15,1500305,Afuá,-0.154874,-50.3861,False
41,26,2600302,Agrestina,-8.459660000000001,-35.9447,False
42,22,2200103,Agricolândia,-5.79676,-42.6664,False
43,42,4200200,Agrolândia,-27.4087,-49.821999999999996,False
44,42,4200309,Agronômica,-27.2662,-49.708,False
45,15,1500347,Água Azul do Norte,-6.79053,-50.4791,False
46,31,3100609,Água Boa,-17.9914,-42.3806,False
47,51,5100201,Água Boa,-14.050999999999998,-52.1601,False
48,22,2200202,Água Branca,-5.88856,-42.637,False
49,25,2500106,Água Branca,-7.5114399999999995,-37.6357,False
50,27,2700102,Água Branca,-9.262,-37.938,False
51,50,5000203,Água Clara,-20.4452,-52.879,False
52,31,3100708,Água Comprida,-20.0576,-48.1069,False
53,42,4200408,Água Doce,-26.9985,-51.5528,False
54,21,2100154,Água Doce do Maranhão,-2.84048,-42.1189,False
55,32,3200169,Água Doce do Norte,-18.5482,-40.9854,False
56,29,2900405,Água Fria,-11.8618,-38.7639,False
57,52,5200175,Água Fria de Goiás,-14.9778,-47.7823,False
58,52,5200209,Água Limpa,-18.0771,-48.7603,False
59,24,2400406,Água Nova,-6.20351,-38.2941,False
60,26,2600401,Água Preta,-8.70609,-35.5263,False
61,43,4300059,Água Santa,-28.1672,-52.031000000000006,False
62,35,3500303,Aguaí,-22.0572,-46.9735,False
63,31,3100807,Aguanil,-20.9439,-45.3915,False
64,26,2600500,Águas Belas,-9.11125,-37.1226,False
65,35,3500402,Águas da Prata,-21.9319,-46.7176,False
66,42,4200507,Águas de Chapecó,-27.0754,-52.9808,False
67,35,3500501,Águas de Lindóia,-22.4733,-46.6314,False
68,35,3500550,Águas de Santa Bárbara,-22.8812,-49.2421,False
69,35,3500600,Águas de São Pedro,-22.5977,-47.8734,False
70,31,3100906,Águas Formosas,-17.0802,-40.9384,False
71,42,4200556,Águas Frias,-26.8794,-52.8568,False
72,52,5200258,Águas Lindas de Goiás,-15.7617,-48.2816,False
73,42,4200606,Águas Mornas,-27.6963,-48.8243,False
74,31,3101003,Águas Vermelhas,-15.7431,-41.4571,False
75,43,4300109,Agudo,-29.6447,-53.2515,False
76,35,3500709,Agudos,-22.4694,-48.9863,False
77,41,4100301,Agudos do Sul,-25.9899,-49.3343,False
78,32,3200136,Águia Branca,-18.9846,-40.7437,False
79,25,2500205,Aguiar,-7.0918,-38.1681,False
80,17,1700301,Aguiarnópolis,-6.5540899999999995,-47.4702,False
81,31,3101102,Aimorés,-19.5007,-41.0746,False
82,29,2900603,Aiquara,-14.1269,-39.8937,False
83,23,2300408,Aiuaba,-6.571219999999999,-40.1178,False
84,31,3101201,Aiuruoca,-21.9736,-44.6042,False
85,43,4300208,Ajuricaba,-28.2342,-53.7757,False
86,31,3101300,Alagoa,-22.171,-44.6413,False
87,25,2500304,Alagoa Grande,-7.03943,-35.6206,False
88,25,2500403,Alagoa Nova,-7.05377,-35.7591,False
89,25,2500502,Alagoinha,-6.9465699999999995,-35.5332,False
90,26,2600609,Alagoinha,-8.4665,-36.7788,False
91,22,2200251,Alagoinha do Piauí,-7.0003899999999994,-40.9282,False
92,29,2900702,Alagoinhas,-12.1335,-38.4208,False
93,35,3500758,Alambari,-23.5503,-47.898,False
94,31,3101409,Albertina,-22.2018,-46.6139,False
95,21,2100204,Alcântara,-2.39574,-44.4062,False
96,23,2300507,Alcântaras,-3.5853699999999997,-40.5479,False
97,25,2500536,Alcantil,-7.736680000000001,-36.0511,False
98,50,5000252,Alcinópolis,-18.3255,-53.7042,False
99,29,2900801,Alcobaça,-17.5195,-39.2036,False
100,21,2100303,Aldeias Altas,-4.6262099999999995,-43.4689,False
101,43,4300307,Alecrim,-27.6579,-54.7649,False
102,32,3200201,Alegre,-20.758000000000003,-41.5382,False
103,43,4300406,Alegrete,-29.7902,-55.7949,False
104,22,2200277,Alegrete do Piauí,-7.241960000000001,-40.8566,False
105,43,4300455,Alegria,-27.8345,-54.0557,False
106,31,3101508,Além Paraíba,-21.8797,-42.7176,False
107,15,1500404,Alenquer,-1.94623,-54.7384,False
108,24,2400505,Alexandria,-6.40533,-38.0142,False
109,52,5200308,Alexânia,-16.0834,-48.5076,False
110,31,3101607,Alfenas,-21.4256,-45.9477,False
111,32,3200300,Alfredo Chaves,-20.6396,-40.7543,False
112,35,3500808,Alfredo Marcondes,-21.9527,-51.413999999999994,False
113,31,3101631,Alfredo Vasconcelos,-21.1535,-43.7718,False
114,42,4200705,Alfredo Wagner,-27.7001,-49.3273,False
115,25,2500577,Algodão de Jandaíra,-6.892919999999999,-36.0129,False
116,25,2500601,Alhandra,-7.4297699999999995,-34.9057,False
117,26,2600708,Aliança,-7.60398,-35.2227,False
118,17,1700350,Aliança do Tocantins,-11.3056,-48.9361,False
119,29,2900900,Almadina,-14.7089,-39.6415,False
120,17,1700400,Almas,-11.5706,-47.1792,False
121,15,1500503,Almeirim,-1.52904,-52.5788,False
122,31,3101706,Almenara,-16.1785,-40.6942,False
123,24,2400604,Almino Afonso,-6.1475,-37.7636,False
124,41,4100400,Almirante Tamandaré,-25.3188,-49.3037,False
125,43,4300471,Almirante Tamandaré do Sul,-28.1149,-52.9142,False
126,52,5200506,Aloândia,-17.7292,-49.4769,False
127,31,3101805,Alpercata,-18.974,-41.97,False
128,43,4300505,Alpestre,-27.2502,-53.0341,False
129,31,3101904,Alpinópolis,-20.8631,-46.3878,False
130,51,5100250,Alta Floresta,-9.86674,-56.0867,False
131,11,1100015,Alta Floresta D'Oeste,-11.9283,-61.9953,False
132,35,3500907,Altair,-20.5242,-49.0571,False
133,15,1500602,Altamira,-3.20407,-52.21,False
134,21,2100402,Altamira do Maranhão,-4.16598,-45.4706,False
135,41,4100459,Altamira do Paraná,-24.7983,-52.7128,False
136,23,2300606,Altaneira,-6.9983699999999995,-39.7356,False
137,31,3102001,Alterosa,-21.2488,-46.1387,False
138,26,2600807,Altinho,-8.48482,-36.0644,False
139,35,3501004,Altinópolis,-21.0214,-47.3712,False
140,35,3501103,Alto Alegre,-21.5811,-50.168,False
141,14,1400050,Alto Alegre,2.98858,-61.3072,False
142,43,4300554,Alto Alegre,-28.7769,-52.9893,False
143,21,2100436,Alto Alegre do Maranhão,-4.213,-44.446000000000005,False
144,21,2100477,Alto Alegre do Pindaré,-3.66689,-45.8421,False
145,11,1100379,Alto Alegre dos Parecis,-12.132,-61.835,False
146,51,5100300,Alto Araguaia,-17.3153,-53.2181,False
147,42,4200754,Alto Bela Vista,-27.4333,-51.9044,False
148,51,5100359,Alto Boa Vista,-11.6732,-51.3883,False
149,31,3102050,Alto Caparaó,-20.430999999999997,-41.8738,False
150,24,2400703,Alto do Rodrigues,-5.28186,-36.75,False
151,43,4300570,Alto Feliz,-29.3919,-51.3123,False
152,51,5100409,Alto Garças,-16.9462,-53.5272,False
153,52,5200555,Alto Horizonte,-14.1978,-49.3378,False
154,31,3153509,Alto Jequitibá,-20.4208,-41.967,False
155,22,2200301,Alto Longá,-5.25634,-42.2096,False
156,51,5100508,Alto Paraguai,-14.5137,-56.4776,False
157,41,4128625,Alto Paraíso,-26.1146,-52.7469,False
158,11,1100403,Alto Paraíso,-9.71429,-63.3188,False
159,52,5200605,Alto Paraíso de Goiás,-14.1305,-47.51,False
160,41,4100608,Alto Paraná,-23.1312,-52.3189,False
161,21,2100501,Alto Parnaíba,-9.102730000000001,-45.9303,False
162,41,4100707,Alto Piquiri,-24.0224,-53.44,False
163,31,3102100,Alto Rio Doce,-21.0281,-43.4067,False
164,32,3200359,Alto Rio Novo,-19.0618,-41.0209,False
165,23,2300705,Alto Santo,-5.50894,-38.2743,False
166,51,5100607,Alto Taquari,-17.8241,-53.2792,False
167,41,4100509,Altônia,-23.8759,-53.8958,False
168,22,2200400,Altos,-5.038880000000001,-42.4612,False
169,35,3501152,Alumínio,-23.5306,-47.2546,False
170,13,1300029,Alvarães,-3.22727,-64.8007,False
171,31,3102209,Alvarenga,-19.4174,-41.7317,False
172,35,3501202,Álvares Florence,-20.3203,-49.9141,False
173,35,3501301,Álvares Machado,-22.0764,-51.4722,False
174,35,3501400,Álvaro de Carvalho,-22.0841,-49.718999999999994,False
175,35,3501509,Alvinlândia,-22.4435,-49.7623,False
176,31,3102308,Alvinópolis,-20.1098,-43.0535,False
177,17,1700707,Alvorada,-12.4785,-49.1249,False
178,43,4300604,Alvorada,-29.9914,-51.0809,False
179,11,1100346,Alvorada D'Oeste,-11.3463,-62.2847,False
180,31,3102407,Alvorada de Minas,-18.7334,-43.3638,False
181,22,2200459,Alvorada do Gurguéia,-8.42418,-43.777,False
182,52,5200803,Alvorada do Norte,-14.4797,-46.49100000000001,False
183,41,4100806,Alvorada do Sul,-22.7813,-51.2297,False
184,14,1400027,Amajari,3.64571,-61.3692,False
185,50,5000609,Amambai,-23.1058,-55.2253,False
186,16,1600105,Amapá,2.05267,-50.7957,False
187,21,2100550,Amapá do Maranhão,-1.67524,-46.0024,False
188,41,4100905,Amaporã,-23.0943,-52.7866,False
189,26,2600906,Amaraji,-8.37691,-35.4501,False
190,43,4300638,Amaral Ferrador,-30.8756,-52.2509,False
191,52,5200829,Amaralina,-13.9236,-49.2962,False
192,22,2200509,Amarante,-6.243040000000001,-42.8433,False
193,21,2100600,Amarante do Maranhão,-5.56913,-46.7473,False
194,29,2901007,Amargosa,-13.0215,-39.602,False
195,13,1300060,Amaturá,-3.37455,-68.2005,False
196,29,2901106,Amélia Rodrigues,-12.3914,-38.7563,False
197,29,2901155,América Dourada,-11.4429,-41.43899999999999,False
198,35,3501608,Americana,-22.7374,-47.3331,False
199,52,5200852,Americano do Brasil,-16.2514,-49.9831,False
200,35,3501707,Américo Brasiliense,-21.7288,-48.1147,False
201,35,3501806,Américo de Campos,-20.2985,-49.7359,False
202,43,4300646,Ametista do Sul,-27.3607,-53.183,False
203,23,2300754,Amontada,-3.3601699999999997,-39.8288,False
204,52,5200902,Amorinópolis,-16.6151,-51.0919,False
205,25,2500734,Amparo,-7.55502,-37.0628,False
206,35,3501905,Amparo,-22.7088,-46.772,False
207,28,2800100,Amparo de São Francisco,-10.1348,-36.935,False
208,31,3102506,Amparo do Serra,-20.5051,-42.8009,False
209,41,4101002,Ampére,-25.9168,-53.4686,False
210,27,2700201,Anadia,-9.68489,-36.3078,False
211,29,2901205,Anagé,-14.6151,-41.1356,False
212,41,4101051,Anahy,-24.6449,-53.1332,False
213,15,1500701,Anajás,-0.9968110000000001,-49.9354,False
214,21,2100709,Anajatuba,-3.26269,-44.6126,False
215,35,3502002,Analândia,-22.1289,-47.6619,False
216,13,1300086,Anamã,-3.5669699999999995,-61.3963,False
217,17,1701002,Ananás,-6.36437,-48.0735,False
218,15,1500800,Ananindeua,-1.36391,-48.3743,False
219,52,5201108,Anápolis,-16.3281,-48.953,False
220,15,1500859,Anapu,-3.46985,-51.2003,False
221,21,2100808,Anapurus,-3.6757699999999995,-43.1014,False
222,50,5000708,Anastácio,-20.4823,-55.8104,False
223,50,5000807,Anaurilândia,-22.1852,-52.7191,False
224,42,4200804,Anchieta,-26.5382,-53.3319,False
225,32,3200409,Anchieta,-20.7955,-40.6425,False
226,29,2901304,Andaraí,-12.8049,-41.3297,False
227,41,4101101,Andirá,-23.0533,-50.2304,False
228,29,2901353,Andorinha,-10.3482,-39.8391,False
229,31,3102605,Andradas,-22.0695,-46.5724,False
230,35,3502101,Andradina,-20.8948,-51.3786,False
231,43,4300661,André da Rocha,-28.6283,-51.5797,False
232,31,3102803,Andrelândia,-21.7411,-44.3117,False
233,35,3502200,Angatuba,-23.4917,-48.4139,False
234,31,3102852,Angelândia,-17.7279,-42.2641,False
235,50,5000856,Angélica,-22.1527,-53.7708,False
236,26,2601003,Angelim,-8.88429,-36.2902,False
237,42,4200903,Angelina,-27.5704,-48.9879,False
238,29,2901403,Angical,-12.0063,-44.7003,False
239,22,2200608,Angical do Piauí,-6.08786,-42.74,False
240,17,1701051,Angico,-6.39179,-47.8611,False
241,24,2400802,Angicos,-5.65792,-36.6094,False
242,33,3300100,Angra dos Reis,-23.0011,-44.3196,False
243,29,2901502,Anguera,-12.1462,-39.2462,False
244,41,4101150,Ângulo,-23.1946,-51.9154,False
245,52,5201207,Anhanguera,-18.3339,-48.2204,False
246,35,3502309,Anhembi,-22.793000000000003,-48.1336,False
247,35,3502408,Anhumas,-22.2934,-51.3895,False
248,52,5201306,Anicuns,-16.4642,-49.9617,False
249,22,2200707,Anísio de Abreu,-9.18564,-43.0494,False
250,42,4201000,Anita Garibaldi,-27.6897,-51.1271,False
251,42,4201109,Anitápolis,-27.9012,-49.1316,False
252,13,1300102,Anori,-3.74603,-61.6575,False
253,43,4300703,Anta Gorda,-28.9698,-52.0102,False
254,29,2901601,Antas,-10.3856,-38.3401,False
255,41,4101200,Antonina,-25.4386,-48.7191,False
256,23,2300804,Antonina do Norte,-6.769189999999999,-39.986999999999995,False
257,22,2200806,Antônio Almeida,-7.21276,-44.1889,False
258,29,2901700,Antônio Cardoso,-12.4335,-39.1176,False
259,42,4201208,Antônio Carlos,-27.5191,-48.766000000000005,False
260,31,3102902,Antônio Carlos,-21.320999999999998,-43.7451,False
261,31,3103009,Antônio Dias,-19.6491,-42.8732,False
262,29,2901809,Antônio Gonçalves,-10.5767,-40.2785,False
263,50,5000906,Antônio João,-22.1927,-55.9517,False
264,24,2400901,Antônio Martins,-6.21367,-37.8834,False
265,41,4101309,Antônio Olinto,-25.9804,-50.1972,False
266,43,4300802,Antônio Prado,-28.8565,-51.2883,False
267,31,3103108,Antônio Prado de Minas,-21.0192,-42.1109,False
268,25,2500775,Aparecida,-6.784660000000001,-38.0803,False
269,35,3502507,Aparecida,-22.8495,-45.2325,False
270,35,3502606,Aparecida d'Oeste,-20.4487,-50.8835,False
271,52,5201405,Aparecida de Goiânia,-16.8198,-49.2469,False
272,52,5201454,Aparecida do Rio Doce,-18.2941,-51.1516,False
273,17,1701101,Aparecida do Rio Negro,-9.94139,-47.9638,False
274,50,5001003,Aparecida do Taboado,-20.0873,-51.0961,False
275,33,3300159,Aperibé,-21.6252,-42.1017,False
276,32,3200508,Apiacá,-21.1523,-41.5693,False
277,51,5100805,Apiacás,-9.539810000000001,-57.4587,False
278,35,3502705,Apiaí,-24.5108,-48.8443,False
279,21,2100832,Apicum-Açu,-1.45862,-45.0864,False
280,42,4201257,Apiúna,-27.0375,-49.3885,False
281,24,2401008,Apodi,-5.653490000000001,-37.7946,False
282,29,2901908,Aporá,-11.6577,-38.0814,False
283,52,5201504,Aporé,-18.9607,-51.9232,False
284,29,2901957,Apuarema,-13.8542,-39.7501,False
285,41,4101408,Apucarana,-23.55,-51.4635,False
286,13,1300144,Apuí,-7.194089999999999,-59.896,False
287,23,2300903,Apuiarés,-3.94506,-39.4359,False
288,28,2800209,Aquidabã,-10.277999999999999,-37.0148,False
289,50,5001102,Aquidauana,-20.4666,-55.7868,False
290,23,2301000,Aquiraz,-3.89929,-38.3896,False
291,42,4201273,Arabutã,-27.1587,-52.1423,False
292,25,2500809,Araçagi,-6.8437399999999995,-35.3737,False
293,31,3103207,Araçaí,-19.1955,-44.2493,False
294,28,2800308,Aracaju,-10.9091,-37.0677,True
295,35,3502754,Araçariguama,-23.4366,-47.0608,False
296,29,2902054,Araças,-12.22,-38.2027,False
297,23,2301109,Aracati,-4.55826,-37.7679,False
298,29,2902005,Aracatu,-14.427999999999999,-41.4648,False
299,35,3502804,Araçatuba,-21.2076,-50.4401,False
300,29,2902104,Araci,-11.3253,-38.9584,False
301,31,3103306,Aracitaba,-21.3446,-43.3736,False
302,26,2601052,Araçoiaba,-7.7839100000000006,-35.0809,False
303,23,2301208,Aracoiaba,-4.36872,-38.8125,False
304,35,3502903,Araçoiaba da Serra,-23.5029,-47.6166,False
305,32,3200607,Aracruz,-19.82,-40.2764,False
306,52,5201603,Araçu,-16.3563,-49.6804,False
307,31,3103405,Araçuaí,-16.8523,-42.0637,False
308,52,5201702,Aragarças,-15.8955,-52.2372,False
309,52,5201801,Aragoiânia,-16.9087,-49.4476,False
310,17,1701309,Aragominas,-7.16005,-48.5291,False
311,17,1701903,Araguacema,-8.80755,-49.5569,False
312,17,1702000,Araguaçu,-12.9289,-49.8231,False
313,51,5101001,Araguaiana,-15.7291,-51.8341,False
314,17,1702109,Araguaína,-7.19238,-48.2044,False
315,51,5101209,Araguainha,-16.857,-53.0318,False
316,17,1702158,Araguanã,-6.58225,-48.6395,False
317,21,2100873,Araguanã,-2.94644,-45.6589,False
318,52,5202155,Araguapaz,-15.0909,-50.6315,False
319,31,3103504,Araguari,-18.6456,-48.1934,False
320,17,1702208,Araguatins,-5.64659,-48.1232,False
321,21,2100907,Araioses,-2.89091,-41.905,False
322,50,5001243,Aral Moreira,-22.9385,-55.6334,False
323,29,2902203,Aramari,-12.0884,-38.4969,False
324,43,4300851,Arambaré,-30.9092,-51.5046,False
325,21,2100956,Arame,-4.88347,-46.0032,False
326,35,3503000,Aramina,-20.0882,-47.7873,False
327,35,3503109,Arandu,-23.1386,-49.0487,False
328,31,3103603,Arantina,-21.9102,-44.2555,False
329,35,3503158,Arapeí,-22.6717,-44.4441,False
330,27,2700300,Arapiraca,-9.75487,-36.6615,False
331,17,1702307,Arapoema,-7.65463,-49.0637,False
332,31,3103702,Araponga,-20.6686,-42.5178,False
333,41,4101507,Arapongas,-23.4153,-51.4259,False
334,31,3103751,Araporã,-18.4357,-49.1847,False
335,41,4101606,Arapoti,-24.1548,-49.8285,False
336,41,4101655,Arapuã,-24.3132,-51.7856,False
337,31,3103801,Arapuá,-19.0268,-46.1484,False
338,51,5101258,Araputanga,-15.4641,-58.3425,False
339,42,4201307,Araquari,-26.3754,-48.7188,False
340,25,2500908,Arara,-6.828130000000001,-35.7552,False
341,42,4201406,Araranguá,-28.9356,-49.4918,False
342,35,3503208,Araraquara,-21.7845,-48.178000000000004,False
343,35,3503307,Araras,-22.3572,-47.3842,False
344,23,2301257,Ararendá,-4.74567,-40.830999999999996,False
345,21,2101004,Arari,-3.45214,-44.7665,False
346,43,4300877,Araricá,-29.6168,-50.9291,False
347,23,2301307,Araripe,-7.213189999999999,-40.1359,False
348,26,2601102,Araripina,-7.57073,-40.494,False
349,33,3300209,Araruama,-22.8697,-42.3326,False
350,41,4101705,Araruna,-23.9315,-52.5021,False
351,25,2501005,Araruna,-6.5484800000000005,-35.7498,False
352,29,2902252,Arataca,-15.2651,-39.419000000000004,False
353,43,4300901,Aratiba,-27.3978,-52.2975,False
354,23,2301406,Aratuba,-4.4122900000000005,-39.0471,False
355,29,2902302,Aratuípe,-13.0716,-39.0038,False
356,28,2800407,Arauá,-11.2614,-37.6201,False
357,41,4101804,Araucária,-25.5859,-49.4047,False
358,31,3103900,Araújos,-19.9405,-45.1671,False
359,31,3104007,Araxá,-19.5902,-46.9438,False
360,31,3104106,Arceburgo,-21.359,-46.9401,False
361,35,3503356,Arco-Íris,-21.7728,-50.466,False
362,31,3104205,Arcos,-20.2863,-45.5373,False
363,26,2601201,Arcoverde,-8.415189999999999,-37.0577,False
364,31,3104304,Areado,-21.3572,-46.1421,False
365,33,3300225,Areal,-22.2283,-43.1118,False
366,35,3503406,Arealva,-22.031,-48.9135,False
367,25,2501104,Areia,-6.96396,-35.6977,False
368,24,2401107,Areia Branca,-4.95254,-37.1252,False
369,28,2800506,Areia Branca,-10.758,-37.3251,False
370,25,2501153,Areia de Baraúnas,-7.11702,-36.9404,False
371,25,2501203,Areial,-7.04789,-35.9313,False
372,35,3503505,Areias,-22.5786,-44.6992,False
373,35,3503604,Areiópolis,-22.6672,-48.6681,False
374,51,5101308,Arenápolis,-14.4472,-56.8437,False
375,52,5202353,Arenópolis,-16.3837,-51.5563,False
376,24,2401206,Arês,-6.1883099999999995,-35.1608,False
377,31,3104403,Argirita,-21.6083,-42.8292,False
378,31,3104452,Aricanduva,-17.8666,-42.5533,False
379,31,3104502,Arinos,-15.9187,-46.1043,False
380,51,5101407,Aripuanã,-10.1723,-59.4568,False
381,11,1100023,Ariquemes,-9.905710000000001,-63.0325,False
382,35,3503703,Ariranha,-21.1872,-48.7904,False
383,41,4101853,Ariranha do Ivaí,-24.3857,-51.5839,False
384,33,3300233,Armação dos Búzios,-22.7528,-41.8846,False
385,42,4201505,Armazém,-28.2448,-49.0215,False
386,23,2301505,Arneiroz,-6.3165,-40.1653,False
387,22,2200905,Aroazes,-6.11022,-41.7822,False
388,25,2501302,Aroeiras,-7.54473,-35.7066,False
389,22,2200954,Aroeiras do Itaim,-7.245019999999999,-41.5325,False
390,22,2201002,Arraial,-6.65075,-42.5418,False
391,33,3300258,Arraial do Cabo,-22.9774,-42.0267,False
392,17,1702406,Arraias,-12.9287,-46.9359,False
393,43,4301008,Arroio do Meio,-29.4014,-51.9557,False
394,43,4301073,Arroio do Padre,-31.4389,-52.4246,False
395,43,4301057,Arroio do Sal,-29.5439,-49.8895,False
396,43,4301206,Arroio do Tigre,-29.3348,-53.0966,False
397,43,4301107,Arroio dos Ratos,-30.0875,-51.7275,False
398,43,4301305,Arroio Grande,-32.2327,-53.0862,False
399,42,4201604,Arroio Trinta,-26.9257,-51.3407,False
400,35,3503802,Artur Nogueira,-22.5727,-47.1727,False
401,52,5202502,Aruanã,-14.9166,-51.075,False
402,35,3503901,Arujá,-23.3965,-46.32,False
403,42,4201653,Arvoredo,-27.0748,-52.4543,False
404,43,4301404,Arvorezinha,-28.8737,-52.1781,False
405,42,4201703,Ascurra,-26.9548,-49.3783,False
406,35,3503950,Aspásia,-20.16,-50.728,False
407,41,4101903,Assaí,-23.3697,-50.8459,False
408,23,2301604,Assaré,-6.8669,-39.8689,False
409,35,3504008,Assis,-22.66,-50.4183,False
410,12,1200054,Assis Brasil,-10.9298,-69.5738,False
411,41,4102000,Assis Chateaubriand,-24.4168,-53.5213,False
412,25,2501351,Assunção,-7.072310000000001,-36.725,False
413,22,2201051,Assunção do Piauí,-5.865,-41.0389,False
414,31,3104601,Astolfo Dutra,-21.3184,-42.8572,False
415,41,4102109,Astorga,-23.2318,-51.6668,False
416,41,4102208,Atalaia,-23.1517,-52.0551,False
417,27,2700409,Atalaia,-9.5119,-36.0086,False
418,13,1300201,Atalaia do Norte,-4.37055,-70.1967,False
419,42,4201802,Atalanta,-27.4219,-49.7789,False
420,31,3104700,Ataléia,-18.0438,-41.1149,False
421,35,3504107,Atibaia,-23.1171,-46.5563,False
422,32,3200706,Atilio Vivacqua,-20.913,-41.1986,False
423,17,1702554,Augustinópolis,-5.46863,-47.8863,False
424,15,1500909,Augusto Corrêa,-1.0510899999999999,-46.6147,False
425,31,3104809,Augusto de Lima,-18.0997,-44.2655,False
426,43,4301503,Augusto Pestana,-28.5172,-53.9883,False
427,24,2401305,Augusto Severo (Campo Grande),-5.86206,-37.3135,False
428,43,4301552,Áurea,-27.6936,-52.0505,False
429,29,2902401,Aurelino Leal,-14.321,-39.329,False
430,35,3504206,Auriflama,-20.6836,-50.5572,False
431,52,5202601,Aurilândia,-16.6773,-50.4641,False
432,23,2301703,Aurora,-6.933489999999999,-38.9742,False
433,42,4201901,Aurora,-27.3098,-49.6295,False
434,15,1500958,Aurora do Pará,-2.14898,-47.5677,False
435,17,1702703,Aurora do Tocantins,-12.7105,-46.4076,False
436,13,1300300,Autazes,-3.58574,-59.1256,False
437,35,3504305,Avaí,-22.1514,-49.3356,False
438,35,3504404,Avanhandava,-21.4584,-49.9509,False
439,35,3504503,Avaré,-23.1067,-48.9251,False
440,15,1501006,Aveiro,-3.6084099999999997,-55.3199,False
441,22,2201101,Avelino Lopes,-10.1345,-43.9563,False
442,52,5202809,Avelinópolis,-16.4672,-49.7579,False
443,21,2101103,Axixá,-2.8393900000000003,-44.062,False
444,17,1702901,Axixá do Tocantins,-5.61275,-47.7701,False
445,17,1703008,Babaçulândia,-7.209230000000001,-47.7613,False
446,21,2101202,Bacabal,-4.224469999999999,-44.7832,False
447,21,2101251,Bacabeira,-2.9645200000000003,-44.3164,False
448,21,2101301,Bacuri,-1.6965,-45.1328,False
449,21,2101350,Bacurituba,-2.71,-44.7329,False
450,35,3504602,Bady Bassitt,-20.9197,-49.4385,False
451,31,3104908,Baependi,-21.956999999999997,-44.8874,False
452,43,4301602,Bagé,-31.3297,-54.0999,False
453,15,1501105,Bagre,-1.90057,-50.1987,False
454,25,2501401,Baía da Traição,-6.692089999999999,-34.9381,False
455,24,2401404,Baía Formosa,-6.3716099999999996,-35.0033,False
456,29,2902500,Baianópolis,-12.3016,-44.5388,False
457,15,1501204,Baião,-2.7902099999999996,-49.6694,False
458,29,2902609,Baixa Grande,-11.9519,-40.169000000000004,False
459,22,2201150,Baixa Grande do Ribeiro,-7.84903,-45.218999999999994,False
460,23,2301802,Baixio,-6.71945,-38.7134,False
461,32,3200805,Baixo Guandu,-19.5213,-41.0109,False
462,35,3504701,Balbinos,-21.8963,-49.3619,False
463,31,3105004,Baldim,-19.2832,-43.9613,False
464,52,5203104,Baliza,-16.1966,-52.5393,False
465,42,4201950,Balneário Arroio do Silva,-28.9806,-49.4237,False
466,42,4202057,Balneário Barra do Sul,-26.4597,-48.6123,False
467,42,4202008,Balneário Camboriú,-26.9926,-48.6352,False
468,42,4202073,Balneário Gaivota,-29.1527,-49.5841,False
469,42,4212809,Balneário Piçarras,-26.7639,-48.6717,False
470,43,4301636,Balneário Pinhal,-30.2419,-50.2337,False
471,42,4220000,Balneário Rincão,-28.8314,-49.2352,False
472,41,4102307,Balsa Nova,-25.5804,-49.6291,False
473,35,3504800,Bálsamo,-20.7348,-49.5865,False
474,21,2101400,Balsas,-7.532139999999999,-46.0372,False
475,31,3105103,Bambuí,-20.0166,-45.9754,False
476,23,2301851,Banabuiú,-5.30454,-38.9132,False
477,35,3504909,Bananal,-22.6819,-44.3281,False
478,25,2501500,Bananeiras,-6.74775,-35.6246,False
479,31,3105202,Bandeira,-15.8783,-40.5622,False
480,31,3105301,Bandeira do Sul,-21.7308,-46.3833,False
481,42,4202081,Bandeirante,-26.7705,-53.6413,False
482,50,5001508,Bandeirantes,-19.9275,-54.3585,False
483,41,4102406,Bandeirantes,-23.1078,-50.3704,False
484,17,1703057,Bandeirantes do Tocantins,-7.75612,-48.5836,False
485,15,1501253,Bannach,-7.34779,-50.3959,False
486,29,2902658,Banzaê,-10.5788,-38.6212,False
487,43,4301651,Barão,-29.3725,-51.4949,False
488,35,3505005,Barão de Antonina,-23.6284,-49.5634,False
489,31,3105400,Barão de Cocais,-19.9389,-43.4755,False
490,43,4301701,Barão de Cotegipe,-27.6208,-52.3798,False
491,21,2101509,Barão de Grajaú,-6.74463,-43.0261,False
492,51,5101605,Barão de Melgaço,-16.2067,-55.9623,False
493,31,3105509,Barão de Monte Alto,-21.2444,-42.2372,False
494,43,4301750,Barão do Triunfo,-30.3891,-51.7384,False
495,24,2401453,Baraúna,-5.06977,-37.6129,False
496,25,2501534,Baraúna,-6.63484,-36.2601,False
497,31,3105608,Barbacena,-21.2214,-43.7703,False
498,23,2301901,Barbalha,-7.2982,-39.3021,False
499,35,3505104,Barbosa,-21.2657,-49.9518,False
500,41,4102505,Barbosa Ferraz,-24.0334,-52.004,False
501,15,1501303,Barcarena,-1.51187,-48.6195,False
502,24,2401503,Barcelona,-5.94284,-35.9247,False
503,13,1300409,Barcelos,-0.9833729999999999,-62.9311,False
504,35,3505203,Bariri,-22.073,-48.7438,False
505,29,2902708,Barra,-11.0859,-43.1459,False
506,42,4202099,Barra Bonita,-26.654,-53.44,False
507,35,3505302,Barra Bonita,-22.4909,-48.5583,False
508,22,2201176,Barra D'Alcântara,-6.51645,-42.1146,False
509,29,2902807,Barra da Estiva,-13.6237,-41.3347,False
510,26,2601300,Barra de Guabiraba,-8.42075,-35.6585,False
511,25,2501609,Barra de Santa Rosa,-6.718160000000001,-36.0671,False
512,25,2501575,Barra de Santana,-7.518089999999999,-35.9913,False
513,27,2700508,Barra de Santo Antônio,-9.4023,-35.5101,False
514,32,3200904,Barra de São Francisco,-18.7548,-40.8965,False
515,25,2501708,Barra de São Miguel,-7.74603,-36.3209,False
516,27,2700607,Barra de São Miguel,-9.83842,-35.9057,False
517,51,5101704,Barra do Bugres,-15.0702,-57.1878,False
518,35,3505351,Barra do Chapéu,-24.4722,-49.0238,False
519,29,2902906,Barra do Choça,-14.8654,-40.5791,False
520,21,2101608,Barra do Corda,-5.49682,-45.2485,False
521,51,5101803,Barra do Garças,-15.8804,-52.263999999999996,False
522,43,4301859,Barra do Guarita,-27.1927,-53.7109,False
523,41,4102703,Barra do Jacaré,-23.116,-50.1842,False
524,29,2903003,Barra do Mendes,-11.81,-42.059,False
525,17,1703073,Barra do Ouro,-7.695930000000001,-47.6776,False
526,33,3300308,Barra do Piraí,-22.4715,-43.8269,False
527,43,4301875,Barra do Quaraí,-30.2029,-57.5497,False
528,43,4301909,Barra do Ribeiro,-30.2939,-51.3014,False
529,43,4301925,Barra do Rio Azul,-27.4069,-52.4084,False
530,29,2903102,Barra do Rocha,-14.2,-39.5991,False
531,35,3505401,Barra do Turvo,-24.759,-48.5013,False
532,28,2800605,Barra dos Coqueiros,-10.8996,-37.0323,False
533,43,4301958,Barra Funda,-27.9205,-53.0391,False
534,31,3105707,Barra Longa,-20.2869,-43.0402,False
535,33,3300407,Barra Mansa,-22.5481,-44.1752,False
536,42,4202107,Barra Velha,-26.636999999999997,-48.6933,False
537,43,4301800,Barracão,-27.6739,-51.4585,False
538,41,4102604,Barracão,-26.2502,-53.6324,False
539,22,2201200,Barras,-4.244680000000001,-42.2922,False
540,23,2301950,Barreira,-4.28921,-38.6429,False
541,29,2903201,Barreiras,-12.1439,-44.9968,False
542,22,2201309,Barreiras do Piauí,-9.9296,-45.4702,False
543,13,1300508,Barreirinha,-2.79886,-57.0679,False
544,21,2101707,Barreirinhas,-2.75863,-42.8232,False
545,26,2601409,Barreiros,-8.81605,-35.1832,False
546,35,3505500,Barretos,-20.5531,-48.5698,False
547,35,3505609,Barrinha,-21.1864,-48.1636,False
548,23,2302008,Barro,-7.171880000000001,-38.7741,False
549,29,2903235,Barro Alto,-11.7605,-41.9054,False
550,52,5203203,Barro Alto,-14.9658,-48.9086,False
551,22,2201408,Barro Duro,-5.816730000000001,-42.5147,False
552,29,2903300,Barro Preto,-14.7948,-39.476,False
553,29,2903276,Barrocas,-11.5272,-39.0776,False
554,17,1703107,Barrolândia,-9.83404,-48.7252,False
555,23,2302057,Barroquinha,-3.02051,-41.1358,False
556,43,4302006,Barros Cassal,-29.0947,-52.5836,False
557,31,3105905,Barroso,-21.1907,-43.972,False
558,35,3505708,Barueri,-23.5057,-46.879,False
559,35,3505807,Bastos,-21.921,-50.7357,False
560,50,5001904,Bataguassu,-21.7159,-52.4221,False
561,22,2201507,Batalha,-4.0223,-42.0787,False
562,27,2700706,Batalha,-9.6742,-37.133,False
563,35,3505906,Batatais,-20.8929,-47.5921,False
564,50,5002001,Batayporã,-22.2944,-53.2705,False
565,23,2302107,Baturité,-4.32598,-38.8812,False
566,35,3506003,Bauru,-22.3246,-49.0871,False
567,25,2501807,Bayeux,-7.1238,-34.9293,False
568,35,3506102,Bebedouro,-20.9491,-48.4791,False
569,23,2302206,Beberibe,-4.17741,-38.1271,False
570,23,2302305,Bela Cruz,-3.04996,-40.1671,False
571,50,5002100,Bela Vista,-22.1073,-56.5263,False
572,41,4102752,Bela Vista da Caroba,-25.8842,-53.6725,False
573,52,5203302,Bela Vista de Goiás,-16.9693,-48.9513,False
574,31,3106002,Bela Vista de Minas,-19.8302,-43.0922,False
575,21,2101772,Bela Vista do Maranhão,-3.7261800000000003,-45.3075,False
576,41,4102802,Bela Vista do Paraíso,-22.9937,-51.1927,False
577,22,2201556,Bela Vista do Piauí,-7.98809,-41.8675,False
578,42,4202131,Bela Vista do Toldo,-26.2746,-50.4664,False
579,21,2101731,Belágua,-3.15485,-43.5122,False
580,15,1501402,Belém,-1.4554,-48.4898,True
581,25,2501906,Belém,-6.742610000000001,-35.5166,False
582,27,2700805,Belém,-9.57047,-36.4904,False
583,26,2601508,Belém de Maria,-8.62504,-35.8335,False
584,25,2502003,Belém do Brejo do Cruz,-6.18515,-37.5348,False
585,22,2201572,Belém do Piauí,-7.3665199999999995,-40.9688,False
586,26,2601607,Belém do São Francisco,-8.75046,-38.9623,False
587,33,3300456,Belford Roxo,-22.764,-43.3992,False
588,31,3106101,Belmiro Braga,-21.944000000000003,-43.4084,False
589,42,4202156,Belmonte,-26.843000000000004,-53.5758,False
590,29,2903409,Belmonte,-15.8608,-38.8758,False
591,29,2903508,Belo Campo,-15.0334,-41.2652,False
592,31,3106200,Belo Horizonte,-19.9102,-43.9266,True
593,26,2601706,Belo Jardim,-8.3313,-36.4258,False
594,27,2700904,Belo Monte,-9.82272,-37.277,False
595,31,3106309,Belo Oriente,-19.2199,-42.4828,False
596,31,3106408,Belo Vale,-20.4077,-44.0275,False
597,15,1501451,Belterra,-2.6360900000000003,-54.9374,False
598,22,2201606,Beneditinos,-5.45676,-42.3638,False
599,21,2101806,Benedito Leite,-7.210369999999999,-44.5577,False
600,42,4202206,Benedito Novo,-26.781,-49.3593,False
601,15,1501501,Benevides,-1.3618299999999999,-48.2434,False
602,13,1300607,Benjamin Constant,-4.377680000000001,-70.0342,False
603,43,4302055,Benjamin Constant do Sul,-27.5086,-52.5995,False
604,35,3506201,Bento de Abreu,-21.2686,-50.81399999999999,False
605,24,2401602,Bento Fernandes,-5.69906,-35.813,False
606,43,4302105,Bento Gonçalves,-29.1662,-51.5165,False
607,21,2101905,Bequimão,-2.44162,-44.7842,False
608,31,3106507,Berilo,-16.9567,-42.4606,False
609,31,3106655,Berizal,-15.61,-41.7432,False
610,25,2502052,Bernardino Batista,-6.44572,-38.5521,False
611,35,3506300,Bernardino de Campos,-23.0164,-49.4679,False
612,21,2101939,Bernardo do Mearim,-4.62666,-44.7608,False
613,17,1703206,Bernardo Sayão,-7.874810000000001,-48.8893,False
614,35,3506359,Bertioga,-23.8486,-46.1396,False
615,22,2201705,Bertolínia,-7.633380000000001,-43.9498,False
616,31,3106606,Bertópolis,-17.059,-40.58,False
617,13,1300631,Beruri,-3.89874,-61.3616,False
618,26,2601805,Betânia,-8.26787,-38.0345,False
619,22,2201739,Betânia do Piauí,-8.14376,-40.7989,False
620,31,3106705,Betim,-19.9668,-44.2008,False
621,26,2601904,Bezerros,-8.2328,-35.796,False
622,31,3106804,Bias Fortes,-21.601999999999997,-43.7574,False
623,31,3106903,Bicas,-21.7232,-43.056000000000004,False
624,42,4202305,Biguaçu,-27.496,-48.6598,False
625,35,3506409,Bilac,-21.404,-50.4746,False
626,31,3107000,Biquinhas,-18.7754,-45.4974,False
627,35,3506508,Birigui,-21.291,-50.3432,False
628,35,3506607,Biritiba-Mirim,-23.5698,-46.0407,False
629,29,2903607,Biritinga,-11.6072,-38.8051,False
630,41,4102901,Bituruna,-26.1607,-51.5518,False
631,42,4202404,Blumenau,-26.9155,-49.0709,False
632,41,4103008,Boa Esperança,-24.2467,-52.7876,False
633,31,3107109,Boa Esperança,-21.0927,-45.5612,False
634,32,3201001,Boa Esperança,-18.5395,-40.3025,False
635,41,4103024,Boa Esperança do Iguaçu,-25.6324,-53.2108,False
636,35,3506706,Boa Esperança do Sul,-21.9918,-48.3906,False
637,22,2201770,Boa Hora,-4.41404,-42.1357,False
638,29,2903706,Boa Nova,-14.3598,-40.2064,False
639,25,2502102,Boa Ventura,-7.40982,-38.2113,False
640,41,4103040,Boa Ventura de São Roque,-24.8688,-51.6276,False
641,23,2302404,Boa Viagem,-5.11258,-39.7337,False
642,14,1400100,Boa Vista,2.82384,-60.6753,True
643,25,2502151,Boa Vista,-7.26365,-36.2357,False
644,41,4103057,Boa Vista da Aparecida,-25.4308,-53.4117,False
645,43,4302154,Boa Vista das Missões,-27.6671,-53.3102,False
646,43,4302204,Boa Vista do Buricá,-27.6693,-54.1082,False
647,43,4302220,Boa Vista do Cadeado,-28.5791,-53.8108,False
648,21,2101970,Boa Vista do Gurupi,-1.77614,-46.3002,False
649,43,4302238,Boa Vista do Incra,-28.8185,-53.391000000000005,False
650,13,1300680,Boa Vista do Ramos,-2.9740900000000003,-57.5873,False
651,43,4302253,Boa Vista do Sul,-29.3544,-51.6687,False
652,29,2903805,Boa Vista do Tupim,-12.6498,-40.6064,False
653,27,2701001,Boca da Mata,-9.64308,-36.2125,False
654,13,1300706,Boca do Acre,-8.74232,-67.3919,False
655,22,2201804,Bocaina,-6.94124,-41.3168,False
656,35,3506805,Bocaina,-22.1365,-48.523,False
657,31,3107208,Bocaina de Minas,-22.1697,-44.3972,False
658,42,4202438,Bocaina do Sul,-27.7455,-49.9423,False
659,31,3107307,Bocaiúva,-17.1135,-43.8104,False
660,41,4103107,Bocaiúva do Sul,-25.2066,-49.1141,False
661,24,2401651,Bodó,-5.98027,-36.4167,False
662,26,2602001,Bodocó,-7.777589999999999,-39.9338,False
663,50,5002159,Bodoquena,-20.537,-56.7127,False
664,35,3506904,Bofete,-23.1055,-48.2582,False
665,35,3507001,Boituva,-23.2855,-47.6786,False
666,26,2602100,Bom Conselho,-9.169189999999999,-36.6857,False
667,31,3107406,Bom Despacho,-19.7386,-45.2622,False
668,33,3300506,Bom Jardim,-22.1545,-42.4251,False
669,26,2602209,Bom Jardim,-7.79695,-35.5784,False
670,21,2102002,Bom Jardim,-3.54129,-45.606,False
671,42,4202503,Bom Jardim da Serra,-28.3377,-49.6373,False
672,52,5203401,Bom Jardim de Goiás,-16.2063,-52.1728,False
673,31,3107505,Bom Jardim de Minas,-21.9479,-44.1885,False
674,42,4202537,Bom Jesus,-26.7326,-52.3919,False
675,43,4302303,Bom Jesus,-28.6697,-50.4295,False
676,22,2201903,Bom Jesus,-9.07124,-44.358999999999995,False
677,24,2401701,Bom Jesus,-5.98648,-35.5792,False
678,25,2502201,Bom Jesus,-6.81601,-38.6453,False
679,29,2903904,Bom Jesus da Lapa,-13.2506,-43.4108,False
680,31,3107604,Bom Jesus da Penha,-21.0148,-46.5174,False
681,29,2903953,Bom Jesus da Serra,-14.3663,-40.5126,False
682,21,2102036,Bom Jesus das Selvas,-4.476380000000001,-46.8641,False
683,52,5203500,Bom Jesus de Goiás,-18.2173,-49.74,False
684,31,3107703,Bom Jesus do Amparo,-19.7054,-43.4782,False
685,51,5101852,Bom Jesus do Araguaia,-12.1706,-51.5032,False
686,31,3107802,Bom Jesus do Galho,-19.836,-42.3165,False
687,33,3300605,Bom Jesus do Itabapoana,-21.1449,-41.6822,False
688,32,3201100,Bom Jesus do Norte,-21.1173,-41.6731,False
689,42,4202578,Bom Jesus do Oeste,-26.6927,-53.0967,False
690,41,4103156,Bom Jesus do Sul,-26.1958,-53.5955,False
691,15,1501576,Bom Jesus do Tocantins,-5.0424,-48.6047,False
692,17,1703305,Bom Jesus do Tocantins,-8.96306,-48.165,False
693,35,3507100,Bom Jesus dos Perdões,-23.1356,-46.4675,False
694,21,2102077,Bom Lugar,-4.37311,-45.0326,False
695,43,4302352,Bom Princípio,-29.4856,-51.3548,False
696,22,2201919,Bom Princípio do Piauí,-3.19631,-41.6403,False
697,43,4302378,Bom Progresso,-27.5399,-53.8716,False
698,31,3107901,Bom Repouso,-22.4675,-46.144,False
699,42,4202602,Bom Retiro,-27.799,-49.486999999999995,False
700,43,4302402,Bom Retiro do Sul,-29.6071,-51.9456,False
701,31,3108008,Bom Sucesso,-21.0329,-44.7537,False
702,41,4103206,Bom Sucesso,-23.7063,-51.7671,False
703,25,2502300,Bom Sucesso,-6.4417599999999995,-37.9234,False
704,35,3507159,Bom Sucesso de Itararé,-24.3155,-49.1451,False
705,41,4103222,Bom Sucesso do Sul,-26.0731,-52.8353,False
706,42,4202453,Bombinhas,-27.1382,-48.5146,False
707,14,1400159,Bonfim,3.3616099999999998,-59.8333,False
708,31,3108107,Bonfim,-20.3302,-44.2366,False
709,22,2201929,Bonfim do Piauí,-9.1605,-42.8865,False
710,52,5203559,Bonfinópolis,-16.6173,-48.9616,False
711,31,3108206,Bonfinópolis de Minas,-16.567999999999998,-45.9839,False
712,29,2904001,Boninal,-12.7069,-41.8286,False
713,26,2602308,Bonito,-8.471630000000001,-35.7292,False
714,29,2904050,Bonito,-11.9668,-41.2647,False
715,15,1501600,Bonito,-1.36745,-47.3066,False
716,50,5002209,Bonito,-21.1261,-56.4836,False
717,31,3108255,Bonito de Minas,-15.3231,-44.7543,False
718,25,2502409,Bonito de Santa Fé,-7.31341,-38.5133,False
719,52,5203575,Bonópolis,-13.6329,-49.8106,False
720,25,2502508,Boqueirão,-7.487,-36.1309,False
721,43,4302451,Boqueirão do Leão,-29.3046,-52.4284,False
722,22,2201945,Boqueirão do Piauí,-4.48181,-42.1212,False
723,28,2800670,Boquim,-11.1397,-37.6195,False
724,29,2904100,Boquira,-12.8205,-42.7324,False
725,35,3507209,Borá,-22.2696,-50.5409,False
726,35,3507308,Boracéia,-22.1926,-48.7808,False
727,13,1300805,Borba,-4.39154,-59.5874,False
728,25,2502706,Borborema,-6.801989999999999,-35.6187,False
729,35,3507407,Borborema,-21.6214,-49.0741,False
730,31,3108305,Borda da Mata,-22.2707,-46.1653,False
731,35,3507456,Borebi,-22.5728,-48.9707,False
732,41,4103305,Borrazópolis,-23.9366,-51.5875,False
733,43,4302501,Bossoroca,-28.7291,-54.9035,False
734,31,3108404,Botelhos,-21.6412,-46.391000000000005,False
735,35,3507506,Botucatu,-22.8837,-48.4437,False
736,31,3108503,Botumirim,-16.8657,-43.0086,False
737,29,2904209,Botuporã,-13.3772,-42.5163,False
738,42,4202701,Botuverá,-27.2007,-49.0689,False
739,43,4302584,Bozano,-28.3659,-53.772,False
740,42,4202800,Braço do Norte,-28.2681,-49.1701,False
741,42,4202859,Braço do Trombudo,-27.3586,-49.8821,False
742,43,4302600,Braga,-27.6173,-53.7405,False
743,15,1501709,Bragança,-1.06126,-46.7826,False
744,35,3507605,Bragança Paulista,-22.9527,-46.5419,False
745,41,4103354,Braganey,-24.8173,-53.1218,False
746,27,2701100,Branquinha,-9.233419999999999,-36.0162,False
747,31,3108701,Brás Pires,-20.8419,-43.2406,False
748,15,1501725,Brasil Novo,-3.2979199999999995,-52.534,False
749,50,5002308,Brasilândia,-21.2544,-52.0365,False
750,31,3108552,Brasilândia de Minas,-16.9999,-46.0081,False
751,41,4103370,Brasilândia do Sul,-24.1978,-53.5275,False
752,17,1703602,Brasilândia do Tocantins,-8.38918,-48.4822,False
753,12,1200104,Brasiléia,-10.995,-68.7497,False
754,22,2201960,Brasileira,-4.1337,-41.7859,False
755,53,5300108,Brasília,-15.7795,-47.9297,True
756,31,3108602,Brasília de Minas,-16.2104,-44.4299,False
757,51,5101902,Brasnorte,-12.1474,-57.9833,False
758,35,3507704,Braúna,-21.499000000000002,-50.3175,False
759,31,3108800,Braúnas,-19.0562,-42.7099,False
760,52,5203609,Brazabrantes,-16.4281,-49.3863,False
761,31,3108909,Brazópolis,-22.4743,-45.6166,False
762,26,2602407,Brejão,-9.02915,-36.566,False
763,32,3201159,Brejetuba,-20.1395,-41.2954,False
764,24,2401800,Brejinho,-6.1856599999999995,-35.3591,False
765,26,2602506,Brejinho,-7.346939999999999,-37.2865,False
766,17,1703701,Brejinho de Nazaré,-11.0058,-48.5683,False
767,21,2102101,Brejo,-3.6779599999999997,-42.7527,False
768,35,3507753,Brejo Alegre,-21.1651,-50.1861,False
769,26,2602605,Brejo da Madre de Deus,-8.14933,-36.3741,False
770,21,2102150,Brejo de Areia,-4.334,-45.581,False
771,25,2502805,Brejo do Cruz,-6.34185,-37.4943,False
772,22,2201988,Brejo do Piauí,-8.20314,-42.8229,False
773,25,2502904,Brejo dos Santos,-6.37065,-37.8253,False
774,28,2800704,Brejo Grande,-10.4297,-36.4611,False
775,15,1501758,Brejo Grande do Araguaia,-5.69822,-48.4103,False
776,23,2302503,Brejo Santo,-7.48469,-38.9799,False
777,29,2904308,Brejões,-13.1039,-39.7988,False
778,29,2904407,Brejolândia,-12.4815,-43.9679,False
779,15,1501782,Breu Branco,-3.7719099999999997,-49.5735,False
780,15,1501808,Breves,-1.6803599999999999,-50.4791,False
781,52,5203807,Britânia,-15.2428,-51.1602,False
782,43,4302659,Brochier,-29.5501,-51.5945,False
783,35,3507803,Brodowski,-20.9845,-47.6572,False
784,35,3507902,Brotas,-22.2795,-48.1251,False
785,29,2904506,Brotas de Macaúbas,-11.9915,-42.6326,False
786,31,3109006,Brumadinho,-20.151,-44.2007,False
787,29,2904605,Brumado,-14.2021,-41.6696,False
788,42,4202875,Brunópolis,-27.3058,-50.8684,False
789,42,4202909,Brusque,-27.0977,-48.9107,False
790,31,3109105,Bueno Brandão,-22.4383,-46.3491,False
791,31,3109204,Buenópolis,-17.8744,-44.1775,False
792,26,2602704,Buenos Aires,-7.724489999999999,-35.3182,False
793,29,2904704,Buerarema,-14.9595,-39.3028,False
794,31,3109253,Bugre,-19.4231,-42.2552,False
795,26,2602803,Buíque,-8.619539999999999,-37.1606,False
796,12,1200138,Bujari,-9.81528,-67.955,False
797,15,1501907,Bujaru,-1.51762,-48.0381,False
798,35,3508009,Buri,-23.7977,-48.5958,False
799,35,3508108,Buritama,-21.0661,-50.1475,False
800,21,2102200,Buriti,-3.9416900000000004,-42.9179,False
801,52,5203906,Buriti Alegre,-18.1378,-49.0404,False
802,21,2102309,Buriti Bravo,-5.83239,-43.8353,False
803,52,5203939,Buriti de Goiás,-16.1792,-50.4302,False
804,17,1703800,Buriti do Tocantins,-5.3144800000000005,-48.2271,False
805,22,2202000,Buriti dos Lopes,-3.1825900000000003,-41.8695,False
806,22,2202026,Buriti dos Montes,-5.30584,-41.0933,False
807,21,2102325,Buriticupu,-4.32375,-46.4409,False
808,52,5203962,Buritinópolis,-14.4772,-46.4076,False
809,29,2904753,Buritirama,-10.7171,-43.6302,False
810,21,2102358,Buritirana,-5.59823,-47.0131,False
811,11,1100452,Buritis,-10.1943,-63.8324,False
812,31,3109303,Buritis,-15.6218,-46.4221,False
813,35,3508207,Buritizal,-20.1911,-47.7096,False
814,31,3109402,Buritizeiro,-17.3656,-44.9606,False
815,43,4302709,Butiá,-30.1179,-51.9601,False
816,13,1300839,Caapiranga,-3.3153699999999997,-61.2206,False
817,25,2503001,Caaporã,-7.513510000000001,-34.9055,False
818,50,5002407,Caarapó,-22.6368,-54.8209,False
819,29,2904803,Caatiba,-14.9699,-40.4092,False
820,25,2503100,Cabaceiras,-7.488989999999999,-36.287,False
821,29,2904852,Cabaceiras do Paraguaçu,-12.5317,-39.1902,False
822,31,3109451,Cabeceira Grande,-16.0335,-47.0862,False
823,52,5204003,Cabeceiras,-15.7995,-46.9265,False
824,22,2202059,Cabeceiras do Piauí,-4.4773,-42.3069,False
825,25,2503209,Cabedelo,-6.987310000000001,-34.8284,False
826,11,1100031,Cabixi,-13.4945,-60.552,False
827,26,2602902,Cabo de Santo Agostinho,-8.28218,-35.0253,False
828,33,3300704,Cabo Frio,-22.8894,-42.0286,False
829,31,3109501,Cabo Verde,-21.4699,-46.3919,False
830,35,3508306,Cabrália Paulista,-22.4576,-49.3393,False
831,35,3508405,Cabreúva,-23.3053,-47.1362,False
832,26,2603009,Cabrobó,-8.50548,-39.3094,False
833,42,4203006,Caçador,-26.7757,-51.012,False
834,35,3508504,Caçapava,-23.0992,-45.7076,False
835,43,4302808,Caçapava do Sul,-30.5144,-53.4827,False
836,11,1100601,Cacaulândia,-10.349,-62.9043,False
837,43,4302907,Cacequi,-29.8883,-54.821999999999996,False
838,51,5102504,Cáceres,-16.0764,-57.6818,False
839,29,2904902,Cachoeira,-12.5994,-38.9587,False
840,52,5204102,Cachoeira Alta,-18.7618,-50.9432,False
841,31,3109600,Cachoeira da Prata,-19.521,-44.4544,False
842,52,5204201,Cachoeira de Goiás,-16.6635,-50.646,False
843,31,3109709,Cachoeira de Minas,-22.3511,-45.7809,False
844,31,3102704,Cachoeira de Pajeú,-15.9688,-41.4948,False
845,15,1502004,Cachoeira do Arari,-1.01226,-48.9503,False
846,15,1501956,Cachoeira do Piriá,-1.75974,-46.5459,False
847,43,4303004,Cachoeira do Sul,-30.033,-52.8928,False
848,25,2503308,Cachoeira dos Índios,-6.913530000000001,-38.676,False
849,52,5204250,Cachoeira Dourada,-18.4859,-49.4766,False
850,31,3109808,Cachoeira Dourada,-18.5161,-49.5039,False
851,21,2102374,Cachoeira Grande,-2.93074,-44.0528,False
852,35,3508603,Cachoeira Paulista,-22.6665,-45.0154,False
853,33,3300803,Cachoeiras de Macacu,-22.4658,-42.6523,False
854,17,1703826,Cachoeirinha,-6.1156,-47.9234,False
855,26,2603108,Cachoeirinha,-8.48668,-36.2402,False
856,43,4303103,Cachoeirinha,-29.9472,-51.1016,False
857,32,3201209,Cachoeiro de Itapemirim,-20.8462,-41.1198,False
858,25,2503407,Cacimba de Areia,-7.1212800000000005,-37.1563,False
859,25,2503506,Cacimba de Dentro,-6.6386,-35.7778,False
860,25,2503555,Cacimbas,-7.207210000000001,-37.0604,False
861,27,2701209,Cacimbinhas,-9.40121,-36.9911,False
862,43,4303202,Cacique Doble,-27.767,-51.6597,False
863,11,1100049,Cacoal,-11.4343,-61.4562,False
864,35,3508702,Caconde,-21.528000000000002,-46.6437,False
865,52,5204300,Caçu,-18.5594,-51.1328,False
866,29,2905008,Caculé,-14.5003,-42.2229,False
867,29,2905107,Caém,-11.0677,-40.431999999999995,False
868,31,3109907,Caetanópolis,-19.2971,-44.4189,False
869,29,2905156,Caetanos,-14.3347,-40.9175,False
870,31,3110004,Caeté,-19.8826,-43.6704,False
871,26,2603207,Caetés,-8.7803,-36.6268,False
872,29,2905206,Caetité,-14.0684,-42.4861,False
873,29,2905305,Cafarnaum,-11.6914,-41.4688,False
874,41,4103404,Cafeara,-22.789,-51.7142,False
875,35,3508801,Cafelândia,-21.8031,-49.6092,False
876,41,4103453,Cafelândia,-24.6189,-53.3207,False
877,41,4103479,Cafezal do Sul,-23.9005,-53.5124,False
878,35,3508900,Caiabu,-22.0127,-51.2394,False
879,31,3110103,Caiana,-20.6956,-41.9292,False
880,52,5204409,Caiapônia,-16.9539,-51.8091,False
881,43,4303301,Caibaté,-28.2905,-54.6454,False
882,42,4203105,Caibi,-27.0741,-53.2458,False
883,43,4303400,Caiçara,-27.2791,-53.4257,False
884,25,2503605,Caiçara,-6.62115,-35.4581,False
885,24,2401859,Caiçara do Norte,-5.07091,-36.0717,False
886,24,2401909,Caiçara do Rio do Vento,-5.76541,-35.9938,False
887,24,2402006,Caicó,-6.45441,-37.1067,False
888,35,3509007,Caieiras,-23.3607,-46.7397,False
889,29,2905404,Cairu,-13.4904,-39.0465,False
890,35,3509106,Caiuá,-21.8322,-51.9969,False
891,35,3509205,Cajamar,-23.355,-46.8781,False
892,21,2102408,Cajapió,-2.8732599999999997,-44.6741,False
893,21,2102507,Cajari,-3.3274199999999996,-45.0145,False
894,35,3509254,Cajati,-24.7324,-48.1223,False
895,25,2503704,Cajazeiras,-6.880039999999999,-38.5577,False
896,22,2202075,Cajazeiras do Piauí,-6.79667,-42.3903,False
897,25,2503753,Cajazeirinhas,-6.960160000000001,-37.8009,False
898,35,3509304,Cajobi,-20.8773,-48.8063,False
899,27,2701308,Cajueiro,-9.3994,-36.1559,False
900,22,2202083,Cajueiro da Praia,-2.93111,-41.3408,False
901,31,3110202,Cajuri,-20.7903,-42.7925,False
902,35,3509403,Cajuru,-21.2749,-47.303000000000004,False
903,26,2603306,Calçado,-8.73108,-36.3366,False
904,16,1600204,Calçoene,2.50475,-50.9512,False
905,31,3110301,Caldas,-21.9183,-46.3843,False
906,25,2503803,Caldas Brandão,-7.1025,-35.3272,False
907,52,5204508,Caldas Novas,-17.7441,-48.6246,False
908,52,5204557,Caldazinha,-16.7117,-49.0013,False
909,29,2905503,Caldeirão Grande,-11.0208,-40.2956,False
910,22,2202091,Caldeirão Grande do Piauí,-7.3314,-40.6366,False
911,41,4103503,Califórnia,-23.6566,-51.3574,False
912,42,4203154,Calmon,-26.5942,-51.095,False
913,26,2603405,Calumbi,-7.935510000000001,-38.1482,False
914,29,2905602,Camacan,-15.4142,-39.4919,False
915,29,2905701,Camaçari,-12.6996,-38.3263,False
916,31,3110400,Camacho,-20.6294,-45.1593,False
917,25,2503902,Camalaú,-7.88503,-36.8242,False
918,29,2905800,Camamu,-13.9398,-39.1071,False
919,31,3110509,Camanducaia,-22.7515,-46.1494,False
920,50,5002605,Camapuã,-19.5347,-54.0431,False
921,43,4303509,Camaquã,-30.8489,-51.8043,False
922,26,2603454,Camaragibe,-8.02351,-34.9782,False
923,43,4303558,Camargo,-28.588,-52.2003,False
924,41,4103602,Cambará,-23.0423,-50.0753,False
925,43,4303608,Cambará do Sul,-29.0474,-50.1465,False
926,41,4103701,Cambé,-23.2766,-51.2798,False
927,41,4103800,Cambira,-23.589000000000002,-51.5792,False
928,42,4203204,Camboriú,-27.0241,-48.6503,False
929,33,3300902,Cambuci,-21.5691,-41.9187,False
930,31,3110608,Cambuí,-22.6115,-46.0572,False
931,31,3110707,Cambuquira,-21.854,-45.2896,False
932,15,1502103,Cametá,-2.24295,-49.4979,False
933,23,2302602,Camocim,-2.9005,-40.8544,False
934,26,2603504,Camocim de São Félix,-8.35865,-35.7653,False
935,31,3110806,Campanário,-18.2427,-41.7355,False
936,31,3110905,Campanha,-21.836,-45.4004,False
937,31,3111002,Campestre,-21.7079,-46.2381,False
938,27,2701357,Campestre,-8.84723,-35.5685,False
939,43,4303673,Campestre da Serra,-28.7926,-51.0941,False
940,52,5204607,Campestre de Goiás,-16.7624,-49.695,False
941,21,2102556,Campestre do Maranhão,-6.17075,-47.3625,False
942,41,4103909,Campina da Lagoa,-24.5893,-52.7976,False
943,43,4303707,Campina das Missões,-27.9888,-54.8416,False
944,35,3509452,Campina do Monte Alegre,-23.5895,-48.4758,False
945,41,4103958,Campina do Simão,-25.0802,-51.8237,False
946,25,2504009,Campina Grande,-7.22196,-35.8731,False
947,41,4104006,Campina Grande do Sul,-25.3044,-49.0551,False
948,31,3111101,Campina Verde,-19.5382,-49.4862,False
949,52,5204656,Campinaçu,-13.787,-48.5704,False
950,51,5102603,Campinápolis,-14.5162,-52.893,False
951,35,3509502,Campinas,-22.9053,-47.0659,False
952,22,2202109,Campinas do Piauí,-7.6593,-41.8775,False
953,43,4303806,Campinas do Sul,-27.7174,-52.6248,False
954,52,5204706,Campinorte,-14.3137,-49.1511,False
955,42,4203303,Campo Alegre,-26.195,-49.2676,False
956,27,2701407,Campo Alegre,-9.784510000000001,-36.3525,False
957,52,5204805,Campo Alegre de Goiás,-17.6363,-47.7768,False
958,29,2905909,Campo Alegre de Lourdes,-9.522210000000001,-43.0126,False
959,22,2202117,Campo Alegre do Fidalgo,-8.38236,-41.8344,False
960,31,3111150,Campo Azul,-16.5028,-44.8096,False
961,31,3111200,Campo Belo,-20.8932,-45.2699,False
962,42,4203402,Campo Belo do Sul,-27.8975,-50.7595,False
963,43,4303905,Campo Bom,-29.6747,-51.0606,False
964,41,4104055,Campo Bonito,-25.0294,-52.9939,False
965,28,2801009,Campo do Brito,-10.7392,-37.4954,False
966,31,3111309,Campo do Meio,-21.1127,-45.8273,False
967,41,4104105,Campo do Tenente,-25.98,-49.6844,False
968,42,4203501,Campo Erê,-26.3931,-53.0856,False
969,31,3111408,Campo Florido,-19.7631,-48.5716,False
970,29,2906006,Campo Formoso,-10.5105,-40.32,False
971,27,2701506,Campo Grande,-9.95542,-36.7926,False
972,50,5002704,Campo Grande,-20.4486,-54.6295,True
973,22,2202133,Campo Grande do Piauí,-7.12827,-41.0315,False
974,41,4104204,Campo Largo,-25.4525,-49.528999999999996,False
975,22,2202174,Campo Largo do Piauí,-3.80441,-42.64,False
976,52,5204854,Campo Limpo de Goiás,-16.2971,-49.0895,False
977,35,3509601,Campo Limpo Paulista,-23.2078,-46.7889,False
978,41,4104253,Campo Magro,-25.3687,-49.4501,False
979,22,2202208,Campo Maior,-4.8217,-42.1641,False
980,41,4104303,Campo Mourão,-24.0463,-52.378,False
981,43,4304002,Campo Novo,-27.6792,-53.8052,False
982,11,1100700,Campo Novo de Rondônia,-10.5712,-63.6266,False
983,51,5102637,Campo Novo do Parecis,-13.6587,-57.8907,False
984,24,2402105,Campo Redondo,-6.23829,-36.1888,False
985,51,5102678,Campo Verde,-15.545,-55.1626,False
986,31,3111507,Campos Altos,-19.6914,-46.1725,False
987,52,5204904,Campos Belos,-13.035,-46.7681,False
988,43,4304101,Campos Borges,-28.8871,-53.0008,False
989,51,5102686,Campos de Júlio,-13.7242,-59.2858,False
990,35,3509700,Campos do Jordão,-22.7296,-45.5833,False
991,33,3301009,Campos dos Goytacazes,-21.7622,-41.3181,False
992,31,3111606,Campos Gerais,-21.237,-45.7569,False
993,17,1703842,Campos Lindos,-7.989560000000001,-46.8645,False
994,42,4203600,Campos Novos,-27.4002,-51.2276,False
995,35,3509809,Campos Novos Paulista,-22.601999999999997,-49.9987,False
996,23,2302701,Campos Sales,-7.06761,-40.3687,False
997,52,5204953,Campos Verdes,-14.2442,-49.6528,False
998,26,2603603,Camutanga,-7.40545,-35.2664,False
999,31,3111903,Cana Verde,-21.0232,-45.1801,False
1000,31,3111705,Canaã,-20.6869,-42.6167,False
1001,15,1502152,Canaã dos Carajás,-6.49659,-49.8776,False
1002,51,5102694,Canabrava do Norte,-11.0556,-51.8209,False
1003,35,3509908,Cananéia,-25.0144,-47.9341,False
1004,27,2701605,Canapi,-9.11932,-37.5967,False
1005,29,2906105,Canápolis,-13.0725,-44.201,False
1006,31,3111804,Canápolis,-18.7212,-49.2035,False
1007,29,2906204,Canarana,-11.6858,-41.7677,False
1008,51,5102702,Canarana,-13.5515,-52.2705,False
1009,35,3509957,Canas,-22.7003,-45.0521,False
1010,22,2202251,Canavieira,-7.688210000000001,-43.7233,False
1011,29,2906303,Canavieiras,-15.6722,-38.9536,False
1012,29,2906402,Candeal,-11.8049,-39.1203,False
1013,29,2906501,Candeias,-12.6716,-38.5472,False
1014,31,3112000,Candeias,-20.7692,-45.2765,False
1015,11,1100809,Candeias do Jamari,-8.7907,-63.7005,False
1016,43,4304200,Candelária,-29.6684,-52.7895,False
1017,29,2906600,Candiba,-14.4097,-42.8667,False
1018,41,4104402,Cândido de Abreu,-24.5649,-51.3372,False
1019,43,4304309,Cândido Godói,-27.9515,-54.7517,False
1020,21,2102606,Cândido Mendes,-1.43265,-45.7161,False
1021,35,3510005,Cândido Mota,-22.7471,-50.3873,False
1022,35,3510104,Cândido Rodrigues,-21.3275,-48.6327,False
1023,29,2906709,Cândido Sales,-15.4993,-41.2414,False
1024,43,4304358,Candiota,-31.5516,-53.6773,False
1025,41,4104428,Candói,-25.5758,-52.0409,False
1026,43,4304408,Canela,-29.355999999999998,-50.8119,False
1027,42,4203709,Canelinha,-27.2616,-48.7658,False
1028,24,2402204,Canguaretama,-6.37193,-35.1281,False
1029,43,4304507,Canguçu,-31.396,-52.6783,False
1030,28,2801108,Canhoba,-10.1365,-36.9806,False
1031,26,2603702,Canhotinho,-8.87652,-36.1979,False
1032,23,2302800,Canindé,-4.35162,-39.3155,False
1033,28,2801207,Canindé de São Francisco,-9.648819999999999,-37.7923,False
1034,35,3510153,Canitar,-23.004,-49.7839,False
1035,43,4304606,Canoas,-29.9128,-51.1857,False
1036,42,4203808,Canoinhas,-26.1766,-50.395,False
1037,29,2906808,Cansanção,-10.6647,-39.4944,False
1038,14,1400175,Cantá,2.60994,-60.6058,False
1039,33,3301108,Cantagalo,-21.9797,-42.3664,False
1040,41,4104451,Cantagalo,-25.3734,-52.1198,False
1041,31,3112059,Cantagalo,-18.5248,-42.6223,False
1042,21,2102705,Cantanhede,-3.6375699999999997,-44.383,False
1043,22,2202307,Canto do Buriti,-8.1111,-42.9517,False
1044,29,2906824,Canudos,-9.900139999999999,-39.1471,False
1045,43,4304614,Canudos do Vale,-29.3271,-52.2374,False
1046,13,1300904,Canutama,-6.5258199999999995,-64.3953,False
1047,15,1502202,Capanema,-1.20529,-47.1778,False
1048,41,4104501,Capanema,-25.6691,-53.8055,False
1049,42,4203253,Capão Alto,-27.9389,-50.5098,False
1050,35,3510203,Capão Bonito,-24.0113,-48.3482,False
1051,43,4304622,Capão Bonito do Sul,-28.1254,-51.3961,False
1052,43,4304630,Capão da Canoa,-29.7642,-50.0282,False
1053,43,4304655,Capão do Cipó,-28.9312,-54.5558,False
1054,43,4304663,Capão do Leão,-31.7565,-52.4889,False
1055,31,3112109,Caparaó,-20.5289,-41.9061,False
1056,27,2701704,Capela,-9.41504,-36.0826,False
1057,28,2801306,Capela,-10.5069,-37.0628,False
1058,43,4304689,Capela de Santana,-29.6961,-51.328,False
1059,35,3510302,Capela do Alto,-23.4685,-47.7388,False
1060,29,2906857,Capela do Alto Alegre,-11.6658,-39.8349,False
1061,31,3112208,Capela Nova,-20.9179,-43.622,False
1062,31,3112307,Capelinha,-17.6888,-42.5147,False
1063,31,3112406,Capetinga,-20.6163,-47.0571,False
1064,25,2504033,Capim,-6.916239999999999,-35.1673,False
1065,31,3112505,Capim Branco,-19.5471,-44.1304,False
1066,29,2906873,Capim Grosso,-11.3797,-40.0089,False
1067,31,3112604,Capinópolis,-18.6862,-49.5706,False
1068,42,4203907,Capinzal,-27.3473,-51.6057,False
1069,21,2102754,Capinzal do Norte,-4.7236,-44.328,False
1070,23,2302909,Capistrano,-4.45569,-38.9048,False
1071,43,4304697,Capitão,-29.2674,-51.9853,False
1072,31,3112653,Capitão Andrade,-19.0748,-41.8614,False
1073,22,2202406,Capitão de Campos,-4.457,-41.943999999999996,False
1074,31,3112703,Capitão Enéas,-16.3265,-43.7084,False
1075,22,2202455,Capitão Gervásio Oliveira,-8.49655,-41.81399999999999,False
1076,41,4104600,Capitão Leônidas Marques,-25.4816,-53.6112,False
1077,15,1502301,Capitão Poço,-1.74785,-47.0629,False
1078,31,3112802,Capitólio,-20.6164,-46.0493,False
1079,35,3510401,Capivari,-22.9951,-47.5071,False
1080,42,4203956,Capivari de Baixo,-28.4498,-48.9631,False
1081,43,4304671,Capivari do Sul,-30.1383,-50.5152,False
1082,12,1200179,Capixaba,-10.565999999999999,-67.686,False
1083,26,2603801,Capoeiras,-8.73423,-36.6306,False
1084,31,3112901,Caputira,-20.1703,-42.2683,False
1085,43,4304713,Caraá,-29.7869,-50.4316,False
1086,14,1400209,Caracaraí,1.8276599999999998,-61.1304,False
1087,22,2202505,Caracol,-9.27933,-43.32899999999999,False
1088,50,5002803,Caracol,-22.011,-57.0277,False
1089,35,3510500,Caraguatatuba,-23.6125,-45.4125,False
1090,31,3113008,Caraí,-17.1862,-41.7004,False
1091,29,2906899,Caraíbas,-14.7177,-41.2603,False
1092,41,4104659,Carambeí,-24.9152,-50.0986,False
1093,31,3113107,Caranaíba,-20.8707,-43.7417,False
1094,31,3113206,Carandaí,-20.9566,-43.81100000000001,False
1095,31,3113305,Carangola,-20.7343,-42.0313,False
1096,33,3300936,Carapebus,-22.1821,-41.663000000000004,False
1097,35,3510609,Carapicuíba,-23.5235,-46.8407,False
1098,31,3113404,Caratinga,-19.7868,-42.1292,False
1099,13,1301001,Carauari,-4.88161,-66.9086,False
1100,24,2402303,Caraúbas,-5.783869999999999,-37.5586,False
1101,25,2504074,Caraúbas,-7.72049,-36.492,False
1102,22,2202539,Caraúbas do Piauí,-3.47525,-41.8425,False
1103,29,2906907,Caravelas,-17.7268,-39.2597,False
1104,43,4304705,Carazinho,-28.2958,-52.7933,False
1105,31,3113503,Carbonita,-17.5255,-43.0137,False
1106,29,2907004,Cardeal da Silva,-11.9472,-37.9469,False
1107,35,3510708,Cardoso,-20.08,-49.9183,False
1108,33,3301157,Cardoso Moreira,-21.4846,-41.6165,False
1109,31,3113602,Careaçu,-22.0424,-45.696000000000005,False
1110,13,1301100,Careiro,-3.7680300000000004,-60.369,False
1111,13,1301159,Careiro da Várzea,-3.3139999999999996,-59.5557,False
1112,32,3201308,Cariacica,-20.2632,-40.4165,False
1113,23,2303006,Caridade,-4.225140000000001,-39.1912,False
1114,22,2202554,Caridade do Piauí,-7.73435,-40.9848,False
1115,29,2907103,Carinhanha,-14.2985,-43.7724,False
1116,28,2801405,Carira,-10.3524,-37.7002,False
1117,23,2303105,Cariré,-3.94858,-40.476,False
1118,17,1703867,Cariri do Tocantins,-11.8881,-49.1609,False
1119,23,2303204,Caririaçu,-7.02808,-39.2828,False
1120,23,2303303,Cariús,-6.52428,-39.4916,False
1121,51,5102793,Carlinda,-9.949119999999999,-55.8417,False
1122,41,4104709,Carlópolis,-23.4269,-49.7235,False
1123,43,4304804,Carlos Barbosa,-29.2969,-51.5028,False
1124,31,3113701,Carlos Chagas,-17.6973,-40.7723,False
1125,43,4304853,Carlos Gomes,-27.7167,-51.9121,False
1126,31,3113800,Carmésia,-19.0877,-43.1382,False
1127,33,3301207,Carmo,-21.930999999999997,-42.6046,False
1128,31,3113909,Carmo da Cachoeira,-21.4633,-45.2201,False
1129,31,3114006,Carmo da Mata,-20.5575,-44.8735,False
1130,31,3114105,Carmo de Minas,-22.1204,-45.1307,False
1131,31,3114204,Carmo do Cajuru,-20.1912,-44.7664,False
1132,31,3114303,Carmo do Paranaíba,-18.991,-46.3167,False
1133,31,3114402,Carmo do Rio Claro,-20.9736,-46.1149,False
1134,52,5205000,Carmo do Rio Verde,-15.3549,-49.708,False
1135,17,1703883,Carmolândia,-7.03262,-48.3978,False
1136,28,2801504,Carmópolis,-10.6449,-36.9887,False
1137,31,3114501,Carmópolis de Minas,-20.5396,-44.6336,False
1138,26,2603900,Carnaíba,-7.793419999999999,-37.7946,False
1139,24,2402402,Carnaúba dos Dantas,-6.55015,-36.5868,False
1140,24,2402501,Carnaubais,-5.34181,-36.8335,False
1141,23,2303402,Carnaubal,-4.15985,-40.9413,False
1142,26,2603926,Carnaubeira da Penha,-8.31799,-38.7512,False
1143,31,3114550,Carneirinho,-19.6987,-50.6894,False
1144,27,2701803,Carneiros,-9.484760000000001,-37.3773,False
1145,14,1400233,Caroebe,0.8842030000000001,-59.6959,False
1146,21,2102804,Carolina,-7.335839999999999,-47.4634,False
1147,26,2604007,Carpina,-7.8456600000000005,-35.2514,False
1148,31,3114600,Carrancas,-21.4898,-44.6446,False
1149,25,2504108,Carrapateira,-7.03414,-38.3399,False
1150,17,1703891,Carrasco Bonito,-5.31415,-48.0314,False
1151,26,2604106,Caruaru,-8.28455,-35.9699,False
1152,21,2102903,Carutapera,-1.19696,-46.0085,False
1153,31,3114709,Carvalhópolis,-21.7735,-45.8421,False
1154,31,3114808,Carvalhos,-22.0,-44.4632,False
1155,35,3510807,Casa Branca,-21.7708,-47.0852,False
1156,31,3114907,Casa Grande,-20.7925,-43.9343,False
1157,29,2907202,Casa Nova,-9.16408,-40.974,False
1158,43,4304903,Casca,-28.5605,-51.9815,False
1159,31,3115003,Cascalho Rico,-18.5772,-47.8716,False
1160,41,4104808,Cascavel,-24.9573,-53.458999999999996,False
1161,23,2303501,Cascavel,-4.12967,-38.2412,False
1162,17,1703909,Caseara,-9.27612,-49.9521,False
1163,43,4304952,Caseiros,-28.2582,-51.6861,False
1164,33,3301306,Casimiro de Abreu,-22.4812,-42.2066,False
1165,26,2604155,Casinhas,-7.7408399999999995,-35.7206,False
1166,25,2504157,Casserengue,-6.779539999999999,-35.8179,False
1167,31,3115102,Cássia,-20.5831,-46.9201,False
1168,35,3510906,Cássia dos Coqueiros,-21.2801,-47.1643,False
1169,50,5002902,Cassilândia,-19.1179,-51.7313,False
1170,15,1502400,Castanhal,-1.29797,-47.9167,False
1171,51,5102850,Castanheira,-11.1251,-58.6081,False
1172,11,1100908,Castanheiras,-11.4253,-61.9482,False
1173,52,5205059,Castelândia,-18.0921,-50.203,False
1174,32,3201407,Castelo,-20.6033,-41.2031,False
1175,22,2202604,Castelo do Piauí,-5.31869,-41.5499,False
1176,35,3511003,Castilho,-20.8689,-51.4884,False
1177,41,4104907,Castro,-24.7891,-50.0108,False
1178,29,2907301,Castro Alves,-12.7579,-39.4248,False
1179,31,3115300,Cataguases,-21.3924,-42.6896,False
1180,52,5205109,Catalão,-18.1656,-47.943999999999996,False
1181,35,3511102,Catanduva,-21.1314,-48.977,False
1182,41,4105003,Catanduvas,-25.2044,-53.1548,False
1183,42,4204004,Catanduvas,-27.069000000000003,-51.6602,False
1184,23,2303600,Catarina,-6.12291,-39.8736,False
1185,31,3115359,Catas Altas,-20.0734,-43.4061,False
1186,31,3115409,Catas Altas da Noruega,-20.6901,-43.4939,False
1187,26,2604205,Catende,-8.675089999999999,-35.7024,False
1188,35,3511201,Catiguá,-21.0519,-49.0616,False
1189,25,2504207,Catingueira,-7.120080000000001,-37.6064,False
1190,29,2907400,Catolândia,-12.31,-44.8648,False
1191,25,2504306,Catolé do Rocha,-6.3406199999999995,-37.747,False
1192,29,2907509,Catu,-12.3513,-38.3791,False
1193,43,4305009,Catuípe,-28.2554,-54.0132,False
1194,31,3115458,Catuji,-17.3018,-41.5276,False
1195,23,2303659,Catunda,-4.6433599999999995,-40.2,False
1196,52,5205208,Caturaí,-16.4447,-49.4936,False
1197,29,2907558,Caturama,-13.3239,-42.2904,False
1198,25,2504355,Caturité,-7.416589999999999,-36.0306,False
1199,31,3115474,Catuti,-15.3616,-42.9627,False
1200,23,2303709,Caucaia,-3.7279699999999996,-38.6619,False
1201,52,5205307,Cavalcante,-13.7976,-47.4566,False
1202,31,3115508,Caxambu,-21.9753,-44.9319,False
1203,42,4204103,Caxambu do Sul,-27.1624,-52.8807,False
1204,21,2103000,Caxias,-4.86505,-43.3617,False
1205,43,4305108,Caxias do Sul,-29.1629,-51.1792,False
1206,22,2202653,Caxingó,-3.4190400000000003,-41.8955,False
1207,24,2402600,Ceará-Mirim,-5.64323,-35.4247,False
1208,21,2103109,Cedral,-2.00027,-44.5281,False
1209,35,3511300,Cedral,-20.9009,-49.2664,False
1210,23,2303808,Cedro,-6.600339999999999,-39.0609,False
1211,26,2604304,Cedro,-7.71179,-39.2367,False
1212,28,2801603,Cedro de São João,-10.2534,-36.8856,False
1213,31,3115607,Cedro do Abaeté,-19.1458,-45.711999999999996,False
1214,42,4204152,Celso Ramos,-27.6327,-51.335,False
1215,43,4305116,Centenário,-27.7615,-51.9984,False
1216,17,1704105,Centenário,-8.961030000000001,-47.3304,False
1217,41,4105102,Centenário do Sul,-22.8188,-51.5973,False
1218,29,2907608,Central,-11.1376,-42.1116,False
1219,31,3115706,Central de Minas,-18.7612,-41.3143,False
1220,21,2103125,Central do Maranhão,-2.1983099999999998,-44.8254,False
1221,31,3115805,Centralina,-18.5852,-49.2014,False
1222,21,2103158,Centro do Guilherme,-2.4489099999999997,-46.0345,False
1223,21,2103174,Centro Novo do Maranhão,-2.12696,-46.1228,False
1224,11,1100056,Cerejeiras,-13.187000000000001,-60.8168,False
1225,52,5205406,Ceres,-15.3061,-49.6,False
1226,35,3511409,Cerqueira César,-23.038,-49.1655,False
1227,35,3511508,Cerquilho,-23.1665,-47.7459,False
1228,43,4305124,Cerrito,-31.8419,-52.8004,False
1229,41,4105201,Cerro Azul,-26.0891,-52.8691,False
1230,43,4305132,Cerro Branco,-29.656999999999996,-52.9406,False
1231,24,2402709,Cerro Corá,-6.03503,-36.3503,False
1232,43,4305157,Cerro Grande,-27.6106,-53.1672,False
1233,43,4305173,Cerro Grande do Sul,-30.5905,-51.7418,False
1234,43,4305207,Cerro Largo,-28.1463,-54.7428,False
1235,42,4204178,Cerro Negro,-27.7942,-50.8673,False
1236,35,3511607,Cesário Lange,-23.226,-47.9545,False
1237,41,4105300,Céu Azul,-25.1489,-53.8415,False
1238,52,5205455,Cezarina,-16.9718,-49.7758,False
1239,26,2604403,Chã de Alegria,-8.006789999999999,-35.204,False
1240,26,2604502,Chã Grande,-8.23827,-35.4571,False
1241,27,2701902,Chã Preta,-9.2556,-36.2983,False
1242,31,3115904,Chácara,-21.6733,-43.215,False
1243,31,3116001,Chalé,-20.0453,-41.6897,False
1244,43,4305306,Chapada,-28.0559,-53.0665,False
1245,17,1705102,Chapada da Natividade,-11.6175,-47.7486,False
1246,17,1704600,Chapada de Areia,-10.1419,-49.1403,False
1247,31,3116100,Chapada do Norte,-17.0881,-42.5392,False
1248,51,5103007,Chapada dos Guimarães,-15.4643,-55.7499,False
1249,31,3116159,Chapada Gaúcha,-15.3014,-45.6116,False
1250,52,5205471,Chapadão do Céu,-18.4073,-52.549,False
1251,42,4204194,Chapadão do Lageado,-27.5905,-49.5539,False
1252,50,5002951,Chapadão do Sul,-18.788,-52.6263,False
1253,21,2103208,Chapadinha,-3.73875,-43.3538,False
1254,42,4204202,Chapecó,-27.1004,-52.6152,False
1255,35,3511706,Charqueada,-22.5096,-47.7755,False
1256,43,4305355,Charqueadas,-29.9625,-51.6289,False
1257,43,4305371,Charrua,-27.9493,-52.015,False
1258,23,2303907,Chaval,-3.03571,-41.2435,False
1259,35,3557204,Chavantes,-23.0366,-49.7096,False
1260,15,1502509,Chaves,-0.164154,-49.986999999999995,False
1261,31,3116209,Chiador,-21.9996,-43.0617,False
1262,43,4305405,Chiapetta,-27.923000000000002,-53.9419,False
1263,41,4105409,Chopinzinho,-25.8515,-52.5173,False
1264,23,2303931,Choró,-4.83906,-39.1344,False
1265,23,2303956,Chorozinho,-4.28873,-38.4986,False
1266,29,2907707,Chorrochó,-8.9695,-39.0979,False
1267,43,4305439,Chuí,-33.6866,-53.4594,False
1268,11,1100924,Chupinguaia,-12.5611,-60.8877,False
1269,43,4305447,Chuvisca,-30.7504,-51.9737,False
1270,41,4105508,Cianorte,-23.6599,-52.6054,False
1271,29,2907806,Cícero Dantas,-10.5897,-38.3794,False
1272,41,4105607,Cidade Gaúcha,-23.3772,-52.9436,False
1273,52,5205497,Cidade Ocidental,-16.0765,-47.9252,False
1274,21,2103257,Cidelândia,-5.17465,-47.7781,False
1275,43,4305454,Cidreira,-30.1604,-50.2337,False
1276,29,2907905,Cipó,-11.1032,-38.5179,False
1277,31,3116308,Cipotânea,-20.9026,-43.3629,False
1278,43,4305504,Ciríaco,-28.3419,-51.8741,False
1279,31,3116407,Claraval,-20.397000000000002,-47.2768,False
1280,31,3116506,Claro dos Poções,-17.082,-44.2061,False
1281,51,5103056,Cláudia,-11.5075,-54.8835,False
1282,31,3116605,Cláudio,-20.4437,-44.7673,False
1283,35,3511904,Clementina,-21.5604,-50.4525,False
1284,41,4105706,Clevelândia,-26.4043,-52.3508,False
1285,29,2908002,Coaraci,-14.637,-39.5556,False
1286,13,1301209,Coari,-4.094119999999999,-63.1441,False
1287,22,2202703,Cocal,-3.4727900000000003,-41.5546,False
1288,22,2202711,Cocal de Telha,-4.5571,-41.9587,False
1289,42,4204251,Cocal do Sul,-28.5986,-49.3335,False
1290,22,2202729,Cocal dos Alves,-3.6204699999999996,-41.4402,False
1291,51,5103106,Cocalinho,-14.3903,-51.0001,False
1292,52,5205513,Cocalzinho de Goiás,-15.7914,-48.7747,False
1293,29,2908101,Cocos,-14.1814,-44.5352,False
1294,13,1301308,Codajás,-3.8305300000000004,-62.0658,False
1295,21,2103307,Codó,-4.45562,-43.8924,False
1296,21,2103406,Coelho Neto,-4.25245,-43.0108,False
1297,31,3116704,Coimbra,-20.8535,-42.8008,False
1298,27,2702009,Coité do Nóia,-9.63348,-36.5845,False
1299,22,2202737,Coivaras,-5.09224,-42.208,False
1300,15,1502608,Colares,-0.936423,-48.2803,False
1301,32,3201506,Colatina,-19.5493,-40.6269,False
1302,51,5103205,Colíder,-10.8135,-55.461000000000006,False
1303,35,3512001,Colina,-20.7114,-48.5387,False
1304,43,4305587,Colinas,-29.3948,-51.8556,False
1305,21,2103505,Colinas,-6.03199,-44.2543,False
1306,52,5205521,Colinas do Sul,-14.1528,-48.076,False
1307,17,1705508,Colinas do Tocantins,-8.05764,-48.4757,False
1308,17,1716703,Colméia,-8.72463,-48.7638,False
1309,51,5103254,Colniza,-9.461210000000001,-59.2252,False
1310,35,3512100,Colômbia,-20.1768,-48.6865,False
1311,41,4105805,Colombo,-25.2925,-49.2262,False
1312,22,2202752,Colônia do Gurguéia,-8.1837,-43.794,False
1313,22,2202778,Colônia do Piauí,-7.22651,-42.1756,False
1314,27,2702108,Colônia Leopoldina,-8.91806,-35.7214,False
1315,43,4305603,Colorado,-28.5258,-52.9928,False
1316,41,4105904,Colorado,-22.8374,-51.9743,False
1317,11,1100064,Colorado do Oeste,-13.1174,-60.5454,False
1318,31,3116803,Coluna,-18.2311,-42.8352,False
1319,17,1705557,Combinado,-12.7917,-46.5388,False
1320,31,3116902,Comendador Gomes,-19.6973,-49.0789,False
1321,33,3300951,Comendador Levy Gasparian,-22.0404,-43.214,False
1322,31,3117009,Comercinho,-16.2963,-41.7945,False
1323,51,5103304,Comodoro,-13.6614,-59.7848,False
1324,25,2504405,Conceição,-7.5510600000000005,-38.5014,False
1325,31,3117108,Conceição da Aparecida,-21.096,-46.2049,False
1326,32,3201605,Conceição da Barra,-18.5883,-39.7362,False
1327,31,3115201,Conceição da Barra de Minas,-21.1316,-44.4729,False
1328,29,2908200,Conceição da Feira,-12.5078,-38.9978,False
1329,31,3117306,Conceição das Alagoas,-19.9172,-48.3839,False
1330,31,3117207,Conceição das Pedras,-22.1576,-45.4562,False
1331,31,3117405,Conceição de Ipanema,-19.9326,-41.6908,False
1332,33,3301405,Conceição de Macabu,-22.0834,-41.8719,False
1333,29,2908309,Conceição do Almeida,-12.7836,-39.1715,False
1334,15,1502707,Conceição do Araguaia,-8.26136,-49.2689,False
1335,22,2202802,Conceição do Canindé,-7.87638,-41.5942,False
1336,32,3201704,Conceição do Castelo,-20.3639,-41.2417,False
1337,29,2908408,Conceição do Coité,-11.56,-39.2808,False
1338,29,2908507,Conceição do Jacuípe,-12.3268,-38.7684,False
1339,21,2103554,Conceição do Lago-Açu,-3.8514199999999996,-44.8895,False
1340,31,3117504,Conceição do Mato Dentro,-19.0344,-43.4221,False
1341,31,3117603,Conceição do Pará,-19.7456,-44.8945,False
1342,31,3117702,Conceição do Rio Verde,-21.8778,-45.086999999999996,False
1343,17,1705607,Conceição do Tocantins,-12.2209,-47.2951,False
1344,31,3117801,Conceição dos Ouros,-22.4078,-45.7996,False
1345,35,3512209,Conchal,-22.3375,-47.1729,False
1346,35,3512308,Conchas,-23.0154,-48.0134,False
1347,42,4204301,Concórdia,-27.2335,-52.026,False
1348,15,1502756,Concórdia do Pará,-1.9923799999999998,-47.9422,False
1349,25,2504504,Condado,-6.89831,-37.606,False
1350,26,2604601,Condado,-7.58787,-35.0999,False
1351,25,2504603,Conde,-7.257460000000001,-34.8999,False
1352,29,2908606,Conde,-11.8179,-37.6131,False
1353,29,2908705,Condeúba,-14.9022,-41.9718,False
1354,43,4305702,Condor,-28.2075,-53.4905,False
1355,31,3117836,Cônego Marinho,-15.2892,-44.4181,False
1356,31,3117876,Confins,-19.6282,-43.9931,False
1357,51,5103353,Confresa,-10.6437,-51.5699,False
1358,25,2504702,Congo,-7.790780000000001,-36.6581,False
1359,31,3117900,Congonhal,-22.1488,-46.043,False
1360,31,3118007,Congonhas,-20.4958,-43.851000000000006,False
1361,31,3118106,Congonhas do Norte,-18.8021,-43.6767,False
1362,41,4106001,Congonhinhas,-23.5493,-50.5569,False
1363,31,3118205,Conquista,-19.9312,-47.5492,False
1364,51,5103361,Conquista D'Oeste,-14.5381,-59.5444,False
1365,31,3118304,Conselheiro Lafaiete,-20.6634,-43.7846,False
1366,41,4106100,Conselheiro Mairinck,-23.623,-50.1707,False
1367,31,3118403,Conselheiro Pena,-19.1789,-41.4736,False
1368,31,3118502,Consolação,-22.5493,-45.9255,False
1369,43,4305801,Constantina,-27.732,-52.9938,False
1370,31,3118601,Contagem,-19.9321,-44.0539,False
1371,41,4106209,Contenda,-25.6788,-49.535,False
1372,29,2908804,Contendas do Sincorá,-13.7537,-41.048,False
1373,31,3118700,Coqueiral,-21.1858,-45.4366,False
1374,43,4305835,Coqueiro Baixo,-29.1802,-52.0942,False
1375,27,2702207,Coqueiro Seco,-9.63715,-35.7994,False
1376,43,4305850,Coqueiros do Sul,-28.1194,-52.7842,False
1377,31,3118809,Coração de Jesus,-16.6841,-44.3635,False
1378,29,2908903,Coração de Maria,-12.2333,-38.7487,False
1379,41,4106308,Corbélia,-24.7971,-53.3006,False
1380,33,3301504,Cordeiro,-22.0267,-42.3648,False
1381,35,3512407,Cordeirópolis,-22.4778,-47.4519,False
1382,29,2909000,Cordeiros,-15.0356,-41.9308,False
1383,42,4204350,Cordilheira Alta,-26.9844,-52.6056,False
1384,31,3118908,Cordisburgo,-19.1224,-44.3224,False
1385,31,3119005,Cordislândia,-21.7891,-45.6999,False
1386,23,2304004,Coreaú,-3.5415,-40.6587,False
1387,25,2504801,Coremas,-7.00712,-37.9346,False
1388,50,5003108,Corguinho,-19.8243,-54.8281,False
1389,29,2909109,Coribe,-13.8232,-44.4586,False
1390,31,3119104,Corinto,-18.369,-44.4542,False
1391,41,4106407,Cornélio Procópio,-23.1829,-50.6498,False
1392,31,3119203,Coroaci,-18.6156,-42.2791,False
1393,35,3512506,Coroados,-21.3521,-50.2859,False
1394,21,2103604,Coroatá,-4.1344199999999995,-44.1244,False
1395,31,3119302,Coromandel,-18.4734,-47.1933,False
1396,43,4305871,Coronel Barros,-28.3921,-54.0686,False
1397,43,4305900,Coronel Bicaco,-27.7197,-53.7022,False
1398,41,4106456,Coronel Domingos Soares,-26.2277,-52.0356,False
1399,24,2402808,Coronel Ezequiel,-6.3748,-36.2223,False
1400,31,3119401,Coronel Fabriciano,-19.5179,-42.6276,False
1401,42,4204400,Coronel Freitas,-26.9057,-52.7011,False
1402,24,2402907,Coronel João Pessoa,-6.24974,-38.4441,False
1403,29,2909208,Coronel João Sá,-10.2847,-37.9198,False
1404,22,2202851,Coronel José Dias,-8.81397,-42.5232,False
1405,35,3512605,Coronel Macedo,-23.6261,-49.31,False
1406,42,4204459,Coronel Martins,-26.511,-52.6694,False
1407,31,3119500,Coronel Murta,-16.6148,-42.184,False
1408,31,3119609,Coronel Pacheco,-21.5898,-43.256,False
1409,43,4305934,Coronel Pilar,-29.2695,-51.6847,False
1410,50,5003157,Coronel Sapucaia,-23.2724,-55.5278,False
1411,41,4106506,Coronel Vivida,-25.9767,-52.5641,False
1412,31,3119708,Coronel Xavier Chaves,-21.0277,-44.2206,False
1413,31,3119807,Córrego Danta,-19.8198,-45.9032,False
1414,31,3119906,Córrego do Bom Jesus,-22.6269,-46.0241,False
1415,52,5205703,Córrego do Ouro,-16.2918,-50.5503,False
1416,31,3119955,Córrego Fundo,-20.4474,-45.5617,False
1417,31,3120003,Córrego Novo,-19.8361,-42.3988,False
1418,42,4204558,Correia Pinto,-27.5877,-50.3614,False
1419,22,2202901,Corrente,-10.4333,-45.1633,False
1420,26,2604700,Correntes,-9.12117,-36.3244,False
1421,29,2909307,Correntina,-13.3477,-44.6333,False
1422,26,2604809,Cortês,-8.47443,-35.5468,False
1423,50,5003207,Corumbá,-19.0077,-57.651,False
1424,52,5205802,Corumbá de Goiás,-15.9245,-48.8117,False
1425,52,5205901,Corumbaíba,-18.1415,-48.5626,False
1426,35,3512704,Corumbataí,-22.2213,-47.6215,False
1427,41,4106555,Corumbataí do Sul,-24.101,-52.1177,False
1428,11,1100072,Corumbiara,-12.9551,-60.8947,False
1429,42,4204509,Corupá,-26.4246,-49.246,False
1430,27,2702306,Coruripe,-10.1276,-36.1717,False
1431,35,3512803,Cosmópolis,-22.6419,-47.1926,False
1432,35,3512902,Cosmorama,-20.4755,-49.7827,False
1433,11,1100080,Costa Marques,-12.4367,-64.22800000000001,False
1434,50,5003256,Costa Rica,-18.5432,-53.1287,False
1435,29,2909406,Cotegipe,-12.0228,-44.2566,False
1436,35,3513009,Cotia,-23.6022,-46.919,False
1437,43,4305959,Cotiporã,-28.9891,-51.6971,False
1438,51,5103379,Cotriguaçu,-9.85656,-58.4192,False
1439,31,3120102,Couto de Magalhães de Minas,-18.0727,-43.4648,False
1440,17,1706001,Couto Magalhães,-8.28411,-49.2473,False
1441,43,4305975,Coxilha,-28.128,-52.3023,False
1442,50,5003306,Coxim,-18.5013,-54.751000000000005,False
1443,25,2504850,Coxixola,-7.62365,-36.6064,False
1444,27,2702355,Craíbas,-9.6178,-36.7697,False
1445,23,2304103,Crateús,-5.167680000000001,-40.6536,False
1446,23,2304202,Crato,-7.2153,-39.4103,False
1447,35,3513108,Cravinhos,-21.338,-47.7324,False
1448,29,2909505,Cravolândia,-13.3531,-39.8031,False
1449,42,4204608,Criciúma,-28.6723,-49.3729,False
1450,31,3120151,Crisólita,-17.2381,-40.9184,False
1451,29,2909604,Crisópolis,-11.5059,-38.1515,False
1452,43,4306007,Crissiumal,-27.4999,-54.0994,False
1453,31,3120201,Cristais,-20.8733,-45.5167,False
1454,35,3513207,Cristais Paulista,-20.4036,-47.4209,False
1455,43,4306056,Cristal,-31.0046,-52.0436,False
1456,43,4306072,Cristal do Sul,-27.451999999999998,-53.2422,False
1457,17,1706100,Cristalândia,-10.5985,-49.1942,False
1458,22,2203008,Cristalândia do Piauí,-10.6443,-45.1893,False
1459,31,3120300,Cristália,-16.715999999999998,-42.8571,False
1460,52,5206206,Cristalina,-16.7676,-47.6131,False
1461,31,3120409,Cristiano Otoni,-20.8324,-43.8166,False
1462,52,5206305,Cristianópolis,-17.1987,-48.7034,False
1463,31,3120508,Cristina,-22.208000000000002,-45.2673,False
1464,28,2801702,Cristinápolis,-11.4668,-37.7585,False
1465,22,2203107,Cristino Castro,-8.82273,-44.223,False
1466,29,2909703,Cristópolis,-12.2249,-44.4214,False
1467,52,5206404,Crixás,-14.5412,-49.974,False
1468,17,1706258,Crixás do Tocantins,-11.0994,-48.9152,False
1469,23,2304236,Croatá,-4.4048099999999994,-40.9022,False
1470,52,5206503,Cromínia,-17.2883,-49.3798,False
1471,31,3120607,Crucilândia,-20.3923,-44.3334,False
1472,23,2304251,Cruz,-2.91813,-40.176,False
1473,43,4306106,Cruz Alta,-28.645,-53.6048,False
1474,29,2909802,Cruz das Almas,-12.6675,-39.1008,False
1475,25,2504900,Cruz do Espírito Santo,-7.1390199999999995,-35.0857,False
1476,41,4106803,Cruz Machado,-26.0166,-51.343,False
1477,35,3513306,Cruzália,-22.7373,-50.7909,False
1478,43,4306130,Cruzaltense,-27.6672,-52.6522,False
1479,35,3513405,Cruzeiro,-22.5728,-44.968999999999994,False
1480,31,3120706,Cruzeiro da Fortaleza,-18.944000000000003,-46.6669,False
1481,41,4106571,Cruzeiro do Iguaçu,-25.6192,-53.1285,False
1482,41,4106605,Cruzeiro do Oeste,-23.7799,-53.0774,False
1483,41,4106704,Cruzeiro do Sul,-22.9624,-52.1622,False
1484,43,4306205,Cruzeiro do Sul,-29.5148,-51.9928,False
1485,12,1200203,Cruzeiro do Sul,-7.627619999999999,-72.6756,False
1486,24,2403004,Cruzeta,-6.40894,-36.7782,False
1487,31,3120805,Cruzília,-21.84,-44.8067,False
1488,41,4106852,Cruzmaltina,-24.0132,-51.4563,False
1489,35,3513504,Cubatão,-23.8911,-46.424,False
1490,25,2505006,Cubati,-6.866860000000001,-36.3619,False
1491,51,5103403,Cuiabá,-15.600999999999999,-56.0974,True
1492,25,2505105,Cuité,-6.47647,-36.1515,False
1493,25,2505238,Cuité de Mamanguape,-6.91292,-35.2502,False
1494,25,2505204,Cuitegi,-6.89058,-35.5215,False
1495,11,1100940,Cujubim,-9.36065,-62.5846,False
1496,52,5206602,Cumari,-18.2644,-48.1511,False
1497,26,2604908,Cumaru,-8.00827,-35.6957,False
1498,15,1502764,Cumaru do Norte,-7.810969999999999,-50.7698,False
1499,28,2801900,Cumbe,-10.352,-37.1846,False
1500,35,3513603,Cunha,-23.0731,-44.9576,False
1501,42,4204707,Cunha Porã,-26.895,-53.1662,False
1502,42,4204756,Cunhataí,-26.9709,-53.0895,False
1503,31,3120839,Cuparaque,-18.9648,-41.0986,False
1504,26,2605004,Cupira,-8.624319999999999,-35.9518,False
1505,29,2909901,Curaçá,-8.984580000000001,-39.8997,False
1506,22,2203206,Curimatá,-10.0326,-44.3002,False
1507,15,1502772,Curionópolis,-6.09965,-49.6068,False
1508,41,4106902,Curitiba,-25.4195,-49.2646,True
1509,42,4204806,Curitibanos,-27.2824,-50.5816,False
1510,41,4107009,Curiúva,-24.0362,-50.4576,False
1511,22,2203230,Currais,-9.01175,-44.4062,False
1512,24,2403103,Currais Novos,-6.25484,-36.5146,False
1513,25,2505279,Curral de Cima,-6.72325,-35.2639,False
1514,31,3120870,Curral de Dentro,-15.9327,-41.8557,False
1515,22,2203271,Curral Novo do Piauí,-7.8313,-40.8957,False
1516,25,2505303,Curral Velho,-7.53075,-38.1962,False
1517,15,1502806,Curralinho,-1.8117900000000002,-49.7952,False
1518,22,2203255,Curralinhos,-5.60825,-42.8376,False
1519,15,1502855,Curuá,-1.88775,-55.1168,False
1520,15,1502905,Curuçá,-0.733214,-47.8515,False
1521,21,2103703,Cururupu,-1.81475,-44.8644,False
1522,51,5103437,Curvelândia,-15.6084,-57.9133,False
1523,31,3120904,Curvelo,-18.7527,-44.4303,False
1524,26,2605103,Custódia,-8.085460000000001,-37.6443,False
1525,16,1600212,Cutias,0.9707610000000001,-50.8005,False
1526,52,5206701,Damianópolis,-14.5604,-46.178000000000004,False
1527,25,2505352,Damião,-6.63161,-35.9101,False
1528,52,5206800,Damolândia,-16.2544,-49.3631,False
1529,17,1706506,Darcinópolis,-6.715910000000001,-47.7597,False
1530,29,2910008,Dário Meira,-14.4229,-39.9031,False
1531,31,3121001,Datas,-18.4478,-43.6591,False
1532,43,4306304,David Canabarro,-28.3849,-51.8482,False
1533,21,2103752,Davinópolis,-5.54637,-47.4217,False
1534,52,5206909,Davinópolis,-18.1501,-47.5568,False
1535,31,3121100,Delfim Moreira,-22.5036,-45.2792,False
1536,31,3121209,Delfinópolis,-20.3468,-46.8456,False
1537,27,2702405,Delmiro Gouveia,-9.38534,-37.9987,False
1538,31,3121258,Delta,-19.9721,-47.7841,False
1539,22,2203305,Demerval Lobão,-5.35875,-42.6776,False
1540,51,5103452,Denise,-14.7324,-57.0583,False
1541,50,5003454,Deodápolis,-22.2763,-54.1682,False
1542,23,2304269,Deputado Irapuan Pinheiro,-5.91485,-39.257,False
1543,43,4306320,Derrubadas,-27.2642,-53.8645,False
1544,35,3513702,Descalvado,-21.9002,-47.6181,False
1545,42,4204905,Descanso,-26.826999999999998,-53.5034,False
1546,31,3121308,Descoberto,-21.46,-42.9618,False
1547,25,2505402,Desterro,-7.287000000000001,-37.0925,False
1548,31,3121407,Desterro de Entre Rios,-20.665,-44.3334,False
1549,31,3121506,Desterro do Melo,-21.143,-43.5178,False
1550,43,4306353,Dezesseis de Novembro,-28.219,-55.0617,False
1551,35,3513801,Diadema,-23.6813,-46.6205,False
1552,25,2505600,Diamante,-7.4173800000000005,-38.2615,False
1553,41,4107157,Diamante D'Oeste,-24.9419,-54.1052,False
1554,41,4107108,Diamante do Norte,-22.655,-52.8617,False
1555,41,4107124,Diamante do Sul,-25.035,-52.6768,False
1556,31,3121605,Diamantina,-18.2413,-43.6031,False
1557,51,5103502,Diamantino,-14.4037,-56.4366,False
1558,17,1707009,Dianópolis,-11.624,-46.8198,False
1559,29,2910057,Dias d'Ávila,-12.6187,-38.2926,False
1560,43,4306379,Dilermando de Aguiar,-29.7054,-54.2122,False
1561,31,3121704,Diogo de Vasconcelos,-20.4879,-43.1953,False
1562,31,3121803,Dionísio,-19.8433,-42.7701,False
1563,42,4205001,Dionísio Cerqueira,-26.2648,-53.6351,False
1564,52,5207105,Diorama,-16.2329,-51.2543,False
1565,35,3513850,Dirce Reis,-20.4642,-50.6073,False
1566,22,2203354,Dirceu Arcoverde,-9.33939,-42.4348,False
1567,28,2802007,Divina Pastora,-10.6782,-37.1506,False
1568,31,3121902,Divinésia,-20.9917,-43.0003,False
1569,31,3122009,Divino,-20.6134,-42.1438,False
1570,31,3122108,Divino das Laranjeiras,-18.7755,-41.4781,False
1571,32,3201803,Divino de São Lourenço,-20.6229,-41.6937,False
1572,35,3513900,Divinolândia,-21.6637,-46.7361,False
1573,31,3122207,Divinolândia de Minas,-18.8004,-42.6103,False
1574,31,3122306,Divinópolis,-20.1446,-44.8912,False
1575,52,5208301,Divinópolis de Goiás,-13.2853,-46.3999,False
1576,17,1707108,Divinópolis do Tocantins,-9.800180000000001,-49.2169,False
1577,31,3122355,Divisa Alegre,-15.7221,-41.3463,False
1578,31,3122405,Divisa Nova,-21.5092,-46.1904,False
1579,31,3122454,Divisópolis,-15.7254,-40.9997,False
1580,35,3514007,Dobrada,-21.5155,-48.3935,False
1581,35,3514106,Dois Córregos,-22.3673,-48.3819,False
1582,43,4306403,Dois Irmãos,-29.5836,-51.0898,False
1583,43,4306429,Dois Irmãos das Missões,-27.6621,-53.5304,False
1584,50,5003488,Dois Irmãos do Buriti,-20.6848,-55.2915,False
1585,17,1707207,Dois Irmãos do Tocantins,-9.255339999999999,-49.0638,False
1586,43,4306452,Dois Lajeados,-28.983,-51.8396,False
1587,27,2702504,Dois Riachos,-9.38465,-37.0965,False
1588,41,4107207,Dois Vizinhos,-25.7407,-53.056999999999995,False
1589,35,3514205,Dolcinópolis,-20.124000000000002,-50.5149,False
1590,51,5103601,Dom Aquino,-15.8099,-54.9223,False
1591,29,2910107,Dom Basílio,-13.7565,-41.7677,False
1592,31,3122470,Dom Bosco,-16.652,-46.2597,False
1593,31,3122504,Dom Cavati,-19.3735,-42.1121,False
1594,15,1502939,Dom Eliseu,-4.19944,-47.8245,False
1595,22,2203404,Dom Expedito Lopes,-6.95332,-41.6396,False
1596,43,4306502,Dom Feliciano,-30.7004,-52.1026,False
1597,22,2203453,Dom Inocêncio,-9.00516,-41.9697,False
1598,31,3122603,Dom Joaquim,-18.961,-43.2544,False
1599,29,2910206,Dom Macedo Costa,-12.9016,-39.1923,False
1600,43,4306601,Dom Pedrito,-30.9756,-54.6694,False
1601,21,2103802,Dom Pedro,-5.03518,-44.4409,False
1602,43,4306551,Dom Pedro de Alcântara,-29.3639,-49.853,False
1603,31,3122702,Dom Silvério,-20.1627,-42.9627,False
1604,31,3122801,Dom Viçoso,-22.2511,-45.1643,False
1605,32,3201902,Domingos Martins,-20.3603,-40.6594,False
1606,22,2203420,Domingos Mourão,-4.2495,-41.2683,False
1607,42,4205100,Dona Emma,-26.980999999999998,-49.7261,False
1608,31,3122900,Dona Eusébia,-21.319000000000003,-42.806999999999995,False
1609,43,4306700,Dona Francisca,-29.6195,-53.3617,False
1610,25,2505709,Dona Inês,-6.615660000000001,-35.6205,False
1611,31,3123007,Dores de Campos,-21.1139,-44.0207,False
1612,31,3123106,Dores de Guanhães,-19.0516,-42.9254,False
1613,31,3123205,Dores do Indaiá,-19.4628,-45.5927,False
1614,32,3202009,Dores do Rio Preto,-20.6931,-41.8405,False
1615,31,3123304,Dores do Turvo,-20.9785,-43.1834,False
1616,31,3123403,Doresópolis,-20.2868,-45.9007,False
1617,26,2605152,Dormentes,-8.44116,-40.7662,False
1618,50,5003504,Douradina,-22.0405,-54.6158,False
1619,41,4107256,Douradina,-23.3807,-53.2918,False
1620,35,3514304,Dourado,-22.1044,-48.3178,False
1621,31,3123502,Douradoquara,-18.4338,-47.5993,False
1622,50,5003702,Dourados,-22.2231,-54.812,False
1623,41,4107306,Doutor Camargo,-23.5582,-52.2178,False
1624,43,4306734,Doutor Maurício Cardoso,-27.5103,-54.3577,False
1625,42,4205159,Doutor Pedrinho,-26.7174,-49.4795,False
1626,43,4306759,Doutor Ricardo,-29.084,-51.9972,False
1627,24,2403202,Doutor Severiano,-6.08082,-38.3794,False
1628,41,4128633,Doutor Ulysses,-24.5665,-49.4219,False
1629,52,5207253,Doverlândia,-16.7188,-52.3189,False
1630,35,3514403,Dracena,-21.4843,-51.535,False
1631,35,3514502,Duartina,-22.4146,-49.4084,False
1632,33,3301603,Duas Barras,-22.0536,-42.5232,False
1633,25,2505808,Duas Estradas,-6.684989999999999,-35.418,False
1634,17,1707306,Dueré,-11.3416,-49.2716,False
1635,35,3514601,Dumont,-21.2324,-47.9756,False
1636,21,2103901,Duque Bacelar,-4.15002,-42.9477,False
1637,33,3301702,Duque de Caxias,-22.7858,-43.3049,False
1638,31,3123528,Durandé,-20.2058,-41.7977,False
1639,35,3514700,Echaporã,-22.4326,-50.2038,False
1640,32,3202108,Ecoporanga,-18.3702,-40.836,False
1641,52,5207352,Edealina,-17.4239,-49.6644,False
1642,52,5207402,Edéia,-17.3406,-49.9295,False
1643,13,1301407,Eirunepé,-6.65677,-69.8662,False
1644,50,5003751,Eldorado,-23.7868,-54.2838,False
1645,35,3514809,Eldorado,-24.5281,-48.1141,False
1646,15,1502954,Eldorado do Carajás,-6.10389,-49.3553,False
1647,43,4306767,Eldorado do Sul,-30.0847,-51.6187,False
1648,22,2203503,Elesbão Veloso,-6.19947,-42.1355,False
1649,35,3514908,Elias Fausto,-23.0428,-47.3682,False
1650,22,2203602,Eliseu Martins,-8.09629,-43.6705,False
1651,35,3514924,Elisiário,-21.1678,-49.1146,False
1652,29,2910305,Elísio Medrado,-12.9417,-39.5191,False
1653,31,3123601,Elói Mendes,-21.6088,-45.5691,False
1654,25,2505907,Emas,-7.099639999999999,-37.7163,False
1655,35,3514957,Embaúba,-20.9796,-48.8325,False
1656,35,3515004,Embu das Artes,-23.6437,-46.8579,False
1657,35,3515103,Embu-Guaçu,-23.8297,-46.8136,False
1658,35,3515129,Emilianópolis,-21.8314,-51.4832,False
1659,43,4306809,Encantado,-29.2351,-51.8703,False
1660,24,2403301,Encanto,-6.10691,-38.3033,False
1661,29,2910404,Encruzilhada,-15.5302,-40.9124,False
1662,43,4306908,Encruzilhada do Sul,-30.543000000000003,-52.5204,False
1663,41,4107405,Enéas Marques,-25.9445,-53.1659,False
1664,41,4107504,Engenheiro Beltrão,-23.796999999999997,-52.2659,False
1665,31,3123700,Engenheiro Caldas,-19.2065,-42.0503,False
1666,35,3515152,Engenheiro Coelho,-22.4836,-47.211000000000006,False
1667,31,3123809,Engenheiro Navarro,-17.2831,-43.946999999999996,False
1668,33,3301801,Engenheiro Paulo de Frontin,-22.5498,-43.6827,False
1669,43,4306924,Engenho Velho,-27.706,-52.9145,False
1670,31,3123858,Entre Folhas,-19.6218,-42.2306,False
1671,29,2910503,Entre Rios,-11.9392,-38.0871,False
1672,42,4205175,Entre Rios,-26.7225,-52.5585,False
1673,31,3123908,Entre Rios de Minas,-20.6706,-44.0654,False
1674,41,4107538,Entre Rios do Oeste,-24.7042,-54.2385,False
1675,43,4306957,Entre Rios do Sul,-27.5298,-52.7347,False
1676,43,4306932,Entre-Ijuís,-28.3686,-54.2686,False
1677,13,1301506,Envira,-7.4378899999999994,-70.0281,False
1678,12,1200252,Epitaciolândia,-11.0188,-68.7341,False
1679,24,2403400,Equador,-6.93835,-36.717,False
1680,43,4306973,Erebango,-27.8544,-52.3005,False
1681,43,4307005,Erechim,-27.6364,-52.2697,False
1682,23,2304277,Ererê,-6.0275099999999995,-38.3461,False
1683,29,2900504,Érico Cardoso,-13.4215,-42.1352,False
1684,42,4205191,Ermo,-28.9869,-49.643,False
1685,43,4307054,Ernestina,-28.4977,-52.5836,False
1686,43,4307203,Erval Grande,-27.3926,-52.574,False
1687,43,4307302,Erval Seco,-27.5443,-53.5005,False
1688,42,4205209,Erval Velho,-27.2743,-51.443000000000005,False
1689,31,3124005,Ervália,-20.8403,-42.6544,False
1690,26,2605202,Escada,-8.35672,-35.2241,False
1691,43,4307401,Esmeralda,-28.0518,-51.1933,False
1692,31,3124104,Esmeraldas,-19.764,-44.3065,False
1693,31,3124203,Espera Feliz,-20.6508,-41.9119,False
1694,25,2506004,Esperança,-7.02278,-35.8597,False
1695,43,4307450,Esperança do Sul,-27.3603,-53.9891,False
1696,41,4107520,Esperança Nova,-23.7238,-53.81100000000001,False
1697,17,1707405,Esperantina,-5.3659300000000005,-48.5378,False
1698,22,2203701,Esperantina,-3.8886300000000005,-42.2324,False
1699,21,2104008,Esperantinópolis,-4.87938,-44.6926,False
1700,41,4107546,Espigão Alto do Iguaçu,-25.4216,-52.8348,False
1701,11,1100098,Espigão D'Oeste,-11.5266,-61.0252,False
1702,31,3124302,Espinosa,-14.9249,-42.809,False
1703,24,2403509,Espírito Santo,-6.33563,-35.3052,False
1704,31,3124401,Espírito Santo do Dourado,-22.0454,-45.9548,False
1705,35,3515186,Espírito Santo do Pinhal,-22.1909,-46.7477,False
1706,35,3515194,Espírito Santo do Turvo,-22.6925,-49.4341,False
1707,29,2910602,Esplanada,-11.7942,-37.9432,False
1708,43,4307500,Espumoso,-28.7286,-52.8461,False
1709,43,4307559,Estação,-27.9135,-52.2635,False
1710,28,2802106,Estância,-11.2659,-37.4484,False
1711,43,4307609,Estância Velha,-29.6535,-51.1843,False
1712,43,4307708,Esteio,-29.851999999999997,-51.1841,False
1713,31,3124500,Estiva,-22.4577,-46.0191,False
1714,35,3557303,Estiva Gerbi,-22.2713,-46.9481,False
1715,21,2104057,Estreito,-6.56077,-47.4431,False
1716,43,4307807,Estrela,-29.5002,-51.9495,False
1717,35,3515202,Estrela d'Oeste,-20.2875,-50.4049,False
1718,31,3124609,Estrela Dalva,-21.7412,-42.4574,False
1719,27,2702553,Estrela de Alagoas,-9.390889999999999,-36.7644,False
1720,31,3124708,Estrela do Indaiá,-19.5169,-45.7859,False
1721,52,5207501,Estrela do Norte,-13.8665,-49.0716,False
1722,35,3515301,Estrela do Norte,-22.4859,-51.6632,False
1723,31,3124807,Estrela do Sul,-18.7399,-47.6956,False
1724,43,4307815,Estrela Velha,-29.1713,-53.1639,False
1725,29,2910701,Euclides da Cunha,-10.5078,-39.0153,False
1726,35,3515350,Euclides da Cunha Paulista,-22.5545,-52.5928,False
1727,43,4307831,Eugênio de Castro,-28.5315,-54.1506,False
1728,31,3124906,Eugenópolis,-21.1002,-42.1878,False
1729,29,2910727,Eunápolis,-16.3715,-39.5821,False
1730,23,2304285,Eusébio,-3.8925,-38.4559,False
1731,31,3125002,Ewbank da Câmara,-21.5498,-43.5068,False
1732,31,3125101,Extrema,-22.854,-46.3178,False
1733,24,2403608,Extremoz,-5.70143,-35.3048,False
1734,26,2605301,Exu,-7.503639999999999,-39.7238,False
1735,25,2506103,Fagundes,-7.344539999999999,-35.7931,False
1736,43,4307864,Fagundes Varela,-28.8794,-51.7014,False
1737,52,5207535,Faina,-15.4473,-50.3622,False
1738,31,3125200,Fama,-21.4089,-45.8286,False
1739,31,3125309,Faria Lemos,-20.8097,-42.0213,False
1740,23,2304301,Farias Brito,-6.921460000000001,-39.5651,False
1741,15,1503002,Faro,-2.16805,-56.7405,False
1742,41,4107553,Farol,-24.0958,-52.6217,False
1743,43,4307906,Farroupilha,-29.2227,-51.3419,False
1744,35,3515400,Fartura,-23.3916,-49.5124,False
1745,22,2203750,Fartura do Piauí,-9.483419999999999,-42.7912,False
1746,17,1707553,Fátima,-10.7603,-48.9076,False
1747,29,2910750,Fátima,-10.616,-38.2239,False
1748,50,5003801,Fátima do Sul,-22.3789,-54.5131,False
1749,41,4107603,Faxinal,-24.0077,-51.3227,False
1750,43,4308003,Faxinal do Soturno,-29.5788,-53.4484,False
1751,42,4205308,Faxinal dos Guedes,-26.8451,-52.2596,False
1752,43,4308052,Faxinalzinho,-27.4238,-52.6789,False
1753,52,5207600,Fazenda Nova,-16.1834,-50.7781,False
1754,41,4107652,Fazenda Rio Grande,-25.6624,-49.3073,False
1755,43,4308078,Fazenda Vilanova,-29.5885,-51.8217,False
1756,12,1200302,Feijó,-8.170539999999999,-70.351,False
1757,29,2910776,Feira da Mata,-14.2044,-44.2744,False
1758,29,2910800,Feira de Santana,-12.2664,-38.9663,False
1759,27,2702603,Feira Grande,-9.898589999999999,-36.6815,False
1760,26,2605400,Feira Nova,-7.947039999999999,-35.3801,False
1761,28,2802205,Feira Nova,-10.2616,-37.3147,False
1762,21,2104073,Feira Nova do Maranhão,-6.96508,-46.6786,False
1763,31,3125408,Felício dos Santos,-18.0755,-43.2422,False
1764,24,2403707,Felipe Guerra,-5.59274,-37.6875,False
1765,31,3125606,Felisburgo,-16.6348,-40.7605,False
1766,31,3125705,Felixlândia,-18.7507,-44.9004,False
1767,43,4308102,Feliz,-29.4527,-51.3032,False
1768,27,2702702,Feliz Deserto,-10.2935,-36.3028,False
1769,51,5103700,Feliz Natal,-12.385,-54.9227,False
1770,41,4107702,Fênix,-23.9135,-51.9805,False
1771,41,4107736,Fernandes Pinheiro,-25.4107,-50.5456,False
1772,31,3125804,Fernandes Tourinho,-19.1541,-42.0803,False
1773,26,2605459,Fernando de Noronha,-3.8396,-32.4107,False
1774,21,2104081,Fernando Falcão,-6.16207,-44.8979,False
1775,24,2403756,Fernando Pedroza,-5.69096,-36.5282,False
1776,35,3515608,Fernando Prestes,-21.2661,-48.6874,False
1777,35,3515509,Fernandópolis,-20.2806,-50.2471,False
1778,35,3515657,Fernão,-22.3607,-49.5187,False
1779,35,3515707,Ferraz de Vasconcelos,-23.5411,-46.371,False
1780,16,1600238,Ferreira Gomes,0.8572559999999999,-51.1795,False
1781,26,2605509,Ferreiros,-7.4466600000000005,-35.2373,False
1782,31,3125903,Ferros,-19.2343,-43.0192,False
1783,31,3125952,Fervedouro,-20.726,-42.278999999999996,False
1784,41,4107751,Figueira,-23.8455,-50.4031,False
1785,50,5003900,Figueirão,-18.6782,-53.638000000000005,False
1786,17,1707652,Figueirópolis,-12.1312,-49.1748,False
1787,51,5103809,Figueirópolis D'Oeste,-15.4439,-58.7391,False
1788,17,1707702,Filadélfia,-7.3350100000000005,-47.4954,False
1789,29,2910859,Filadélfia,-10.7405,-40.1437,False
1790,29,2910909,Firmino Alves,-14.9823,-39.9269,False
1791,52,5207808,Firminópolis,-16.5778,-50.303999999999995,False
1792,27,2702801,Flexeiras,-9.27281,-35.7139,False
1793,41,4107850,Flor da Serra do Sul,-26.2523,-53.3092,False
1794,42,4205357,Flor do Sertão,-26.7811,-53.3505,False
1795,35,3515806,Flora Rica,-21.6727,-51.3821,False
1796,41,4107801,Floraí,-23.3178,-52.3029,False
1797,24,2403806,Florânia,-6.1226400000000005,-36.8226,False
1798,35,3515905,Floreal,-20.6752,-50.1513,False
1799,26,2605608,Flores,-7.85842,-37.9715,False
1800,43,4308201,Flores da Cunha,-29.0261,-51.1875,False
1801,52,5207907,Flores de Goiás,-14.4451,-47.0417,False
1802,22,2203800,Flores do Piauí,-7.78793,-42.918,False
1803,41,4107900,Floresta,-23.6031,-52.0807,False
1804,26,2605707,Floresta,-8.603069999999999,-38.5687,False
1805,29,2911006,Floresta Azul,-14.8629,-39.6579,False
1806,15,1503044,Floresta do Araguaia,-7.55335,-49.7125,False
1807,22,2203859,Floresta do Piauí,-7.466819999999999,-41.7883,False
1808,31,3126000,Florestal,-19.887999999999998,-44.4318,False
1809,41,4108007,Florestópolis,-22.8623,-51.3882,False
1810,22,2203909,Floriano,-6.77182,-43.0241,False
1811,43,4308250,Floriano Peixoto,-27.8614,-52.0838,False
1812,42,4205407,Florianópolis,-27.5945,-48.5477,True
1813,41,4108106,Flórida,-23.0847,-51.9546,False
1814,35,3516002,Flórida Paulista,-21.6127,-51.1724,False
1815,35,3516101,Florínia,-22.868000000000002,-50.6814,False
1816,13,1301605,Fonte Boa,-2.52342,-66.0942,False
1817,43,4308300,Fontoura Xavier,-28.9817,-52.3445,False
1818,31,3126109,Formiga,-20.4618,-45.4268,False
1819,43,4308409,Formigueiro,-30.0035,-53.4959,False
1820,52,5208004,Formosa,-15.54,-47.336999999999996,False
1821,21,2104099,Formosa da Serra Negra,-6.440169999999999,-46.1916,False
1822,41,4108205,Formosa do Oeste,-24.2951,-53.3114,False
1823,29,2911105,Formosa do Rio Preto,-11.0328,-45.193000000000005,False
1824,42,4205431,Formosa do Sul,-26.6453,-52.7946,False
1825,52,5208103,Formoso,-13.6499,-48.8775,False
1826,31,3126208,Formoso,-14.9446,-46.2371,False
1827,17,1708205,Formoso do Araguaia,-11.7976,-49.5316,False
1828,43,4308433,Forquetinha,-29.3828,-52.0981,False
1829,23,2304350,Forquilha,-3.79945,-40.2634,False
1830,42,4205456,Forquilhinha,-28.7454,-49.4785,False
1831,23,2304400,Fortaleza,-3.71664,-38.5423,True
1832,31,3126307,Fortaleza de Minas,-20.8508,-46.711999999999996,False
1833,17,1708254,Fortaleza do Tabocão,-9.05611,-48.5206,False
1834,21,2104107,Fortaleza dos Nogueiras,-6.95983,-46.1749,False
1835,43,4308458,Fortaleza dos Valos,-28.7986,-53.2249,False
1836,23,2304459,Fortim,-4.4512599999999996,-37.7981,False
1837,21,2104206,Fortuna,-5.72792,-44.1565,False
1838,31,3126406,Fortuna de Minas,-19.5578,-44.4472,False
1839,41,4108304,Foz do Iguaçu,-25.5427,-54.5827,False
1840,41,4108452,Foz do Jordão,-25.7371,-52.1188,False
1841,42,4205506,Fraiburgo,-27.0233,-50.92,False
1842,35,3516200,Franca,-20.5352,-47.4039,False
1843,22,2204006,Francinópolis,-6.39334,-42.2591,False
1844,41,4108320,Francisco Alves,-24.0667,-53.8461,False
1845,22,2204105,Francisco Ayres,-6.626060000000001,-42.6881,False
1846,31,3126505,Francisco Badaró,-16.9883,-42.3568,False
1847,41,4108403,Francisco Beltrão,-26.0817,-53.0535,False
1848,24,2403905,Francisco Dantas,-6.0723400000000005,-38.1212,False
1849,31,3126604,Francisco Dumont,-17.3107,-44.2317,False
1850,22,2204154,Francisco Macedo,-7.331,-40.788000000000004,False
1851,35,3516309,Francisco Morato,-23.2792,-46.7448,False
1852,31,3126703,Francisco Sá,-16.4827,-43.4896,False
1853,22,2204204,Francisco Santos,-6.994910000000001,-41.1288,False
1854,31,3126752,Franciscópolis,-17.9578,-42.0094,False
1855,35,3516408,Franco da Rocha,-23.3229,-46.729,False
1856,23,2304509,Frecheirinha,-3.7555699999999996,-40.818000000000005,False
1857,43,4308508,Frederico Westphalen,-27.3586,-53.3958,False
1858,31,3126802,Frei Gaspar,-18.0709,-41.4325,False
1859,31,3126901,Frei Inocêncio,-18.5556,-41.9121,False
1860,31,3126950,Frei Lagonegro,-18.1751,-42.7617,False
1861,25,2506202,Frei Martinho,-6.39759,-36.4526,False
1862,26,2605806,Frei Miguelinho,-7.93918,-35.9113,False
1863,28,2802304,Frei Paulo,-10.5513,-37.5279,False
1864,42,4205555,Frei Rogério,-27.175,-50.8076,False
1865,31,3127008,Fronteira,-20.2748,-49.1984,False
1866,31,3127057,Fronteira dos Vales,-16.8898,-40.923,False
1867,22,2204303,Fronteiras,-7.08173,-40.6146,False
1868,31,3127073,Fruta de Leite,-16.1225,-42.5288,False
1869,31,3127107,Frutal,-20.0259,-48.9355,False
1870,24,2404002,Frutuoso Gomes,-6.15669,-37.8375,False
1871,32,3202207,Fundão,-19.937,-40.4078,False
1872,31,3127206,Funilândia,-19.3661,-44.06100000000001,False
1873,35,3516507,Gabriel Monteiro,-21.5294,-50.5573,False
1874,25,2506251,Gado Bravo,-7.582789999999999,-35.7899,False
1875,35,3516606,Gália,-22.2918,-49.5504,False
1876,31,3127305,Galiléia,-19.0005,-41.5387,False
1877,24,2404101,Galinhos,-5.0909,-36.2754,False
